city,country,city_id,date,latitude,longitude,cloudiness,description,temperature,feels_like,temp_min,temp_max,humidity,visbility,windspeed
Nemuro,JP,2128975,1648789984,43.3236,145.575,100,overcast clouds,29.59,20.52,29.59,29.59,77,10000,10.42
Luganville,VU,2136150,1648789984,-15.5333,167.1667,100,heavy intensity rain,83.08,92.17,83.08,83.08,82,10000,2.89
Balkanabat,TM,161616,1648789984,39.5108,54.3671,0,clear sky,60.35,57.69,60.35,60.35,34,10000,2.68
Chokurdakh,RU,2126123,1648789763,70.6333,147.9167,17,few clouds,-7.08,-15.47,-7.08,-7.08,94,10000,3.24
Vaini,TO,4032243,1648789749,-21.2,-175.2,75,broken clouds,80.76,88.61,80.76,80.76,94,10000,4.61
Khatanga,RU,2022572,1648789750,71.9667,102.5,100,overcast clouds,15.03,6.89,15.03,15.03,94,3366,5.21
New Norfolk,AU,2155415,1648789755,-42.7826,147.0587,97,overcast clouds,60.91,59.29,58.5,62.92,55,10000,1.99
Busselton,AU,2075265,1648789749,-33.65,115.3333,28,scattered clouds,79.14,79.14,79.14,79.14,64,10000,9.66
Jamestown,US,5122534,1648789758,42.097,-79.2353,100,overcast clouds,39.38,32.72,36.52,41.02,69,10000,10.36
Sola,VU,2134814,1648789986,-13.8833,167.55,86,moderate rain,81.48,87.55,81.48,81.48,80,5191,18.66
Tasiilaq,GL,3424607,1648789829,65.6145,-37.6368,100,overcast clouds,32.16,27.43,32.16,32.16,97,681,4.83
São João da Barra,BR,3448903,1648789986,-21.6403,-41.0511,38,scattered clouds,73.62,74.91,73.62,73.62,90,10000,10.16
George Town,MY,1735106,1648789987,5.4112,100.3354,40,scattered clouds,89.53,102.0,88.95,89.53,66,9000,9.22
Cabo San Lucas,MX,3985710,1648789987,22.8909,-109.9124,97,overcast clouds,70.5,70.54,65.5,70.52,70,10000,12.66
Neuquén,AR,3843123,1648789988,-38.9516,-68.0591,0,clear sky,48.09,48.09,48.09,48.09,81,10000,0.0
Rikitea,PF,4030556,1648789751,-23.1203,-134.9692,58,broken clouds,77.43,77.83,77.43,77.43,63,10000,15.39
Longyearbyen,SJ,2729907,1648789823,78.2186,15.6401,40,scattered clouds,4.84,-7.76,4.84,4.84,56,10000,20.71
Caldas Novas,BR,3468100,1648789988,-17.7417,-48.625,65,broken clouds,72.28,72.5,72.28,72.28,70,10000,2.24
Lebu,CL,3883457,1648789811,-37.6167,-73.65,99,overcast clouds,53.76,52.88,53.76,53.76,86,10000,19.48
Cabadiangan,PH,1722028,1648789989,9.7531,122.4739,100,overcast clouds,88.48,96.21,88.48,88.48,60,10000,9.98
Cape Town,ZA,3369157,1648789710,-33.9258,18.4232,1,clear sky,60.03,59.25,59.11,61.12,75,10000,7.0
San Blas,MX,3987544,1648789989,21.5167,-105.2667,53,broken clouds,63.88,63.73,63.88,63.88,80,10000,2.95
Ballina,AU,2177069,1648789990,-28.8667,153.5667,33,scattered clouds,77.76,78.28,76.78,80.78,65,10000,13.0
Tuktoyaktuk,CA,6170031,1648789811,69.4541,-133.0374,80,broken clouds,-23.46,-36.06,-23.46,-23.46,100,8527,4.97
Mataura,NZ,6201424,1648789796,-46.1927,168.8643,54,broken clouds,58.68,56.88,58.68,58.68,56,10000,1.05
Katsuura,JP,2112309,1648789876,35.1333,140.3,100,overcast clouds,48.79,42.55,48.79,48.79,53,10000,17.36
Torbay,CA,6167817,1648789536,47.6666,-52.7314,75,broken clouds,32.22,21.09,30.52,34.29,86,10000,17.27
Tyulyachi,RU,479850,1648789992,55.8913,50.2399,100,overcast clouds,28.09,18.12,28.09,28.09,93,10000,11.48
Qeshm,IR,119374,1648789992,26.9581,56.2719,26,scattered clouds,82.27,85.64,78.69,82.27,64,10000,3.02
Pangody,RU,1495626,1648789993,65.85,74.4859,100,overcast clouds,15.1,2.5,15.1,15.1,88,10000,16.37
Northam,GB,2641434,1648789993,51.0333,-4.2167,26,scattered clouds,37.65,29.28,33.26,39.61,69,10000,13.65
Punta Arenas,CL,3874787,1648789749,-53.15,-70.9167,100,overcast clouds,50.11,47.73,50.11,50.11,62,10000,29.93
Hithadhoo,MV,1282256,1648789822,-0.6,73.0833,6,clear sky,82.99,87.84,82.99,82.99,68,10000,5.66
Wanaka,NZ,2184707,1648789708,-44.7,169.15,98,overcast clouds,56.28,55.04,56.28,56.28,73,10000,2.59
Dzhalil',RU,563681,1648789994,55.0239,52.7358,100,snow,26.47,19.87,26.47,26.47,98,137,5.75
Marabu,MY,1738050,1648789995,4.4148,114.0089,46,scattered clouds,86.22,94.3,86.22,86.22,67,10000,8.01
Hambantota,LK,1244926,1648789996,6.1241,81.1185,23,few clouds,83.84,89.51,83.84,83.84,68,10000,3.13
Mar del Plata,AR,3430863,1648789806,-38.0023,-57.5575,0,clear sky,52.88,51.82,52.88,52.88,84,10000,1.01
Port Alfred,ZA,964432,1648789808,-33.5906,26.891,100,light rain,63.18,63.75,63.18,63.18,97,8577,4.0
Laguna,US,5364271,1648789996,38.421,-121.4238,0,clear sky,56.77,55.53,53.69,59.14,72,10000,5.75
Upernavik,GL,3418910,1648789779,72.7868,-56.1549,100,overcast clouds,8.38,-3.73,8.38,8.38,97,5708,7.81
Ushuaia,AR,3833367,1648789734,-54.8,-68.3,100,drizzle,44.26,34.83,44.26,44.26,76,10000,26.46
Bredasdorp,ZA,1015776,1648789833,-34.5322,20.0403,100,overcast clouds,63.36,61.97,63.36,63.36,55,10000,4.74
Hermanus,ZA,3366880,1648789750,-34.4187,19.2345,80,broken clouds,56.8,55.33,56.8,56.8,67,10000,7.49
Tirano,IT,3165647,1648789997,46.2154,10.1679,100,light rain,46.06,44.62,42.48,47.61,99,181,3.65
Avarua,CK,4035715,1648789796,-21.2078,-159.775,40,scattered clouds,82.45,89.37,82.45,82.45,78,10000,2.3
Shatrovo,RU,1492388,1648789998,56.5167,64.6333,100,light snow,28.29,20.66,28.29,28.29,95,205,7.52
Belaya Gora,RU,2126785,1648789998,68.5333,146.4167,80,broken clouds,3.33,-3.5,3.33,3.33,85,10000,3.18
Bluff,NZ,2206939,1648789819,-46.6,168.3333,66,broken clouds,53.01,50.97,53.01,53.01,63,10000,10.36
Cherskiy,RU,2126199,1648789802,68.75,161.3,96,overcast clouds,-5.93,-18.53,-5.93,-5.93,92,10000,6.64
Korla,CN,1529376,1648790002,41.7597,86.1469,6,clear sky,57.38,54.03,57.38,57.38,26,10000,9.57
Severo-Kuril'sk,RU,2121385,1648789738,50.6789,156.125,92,overcast clouds,29.08,16.48,29.08,29.08,70,10000,18.97
Lubumbashi,CD,922704,1648790003,-11.6609,27.4794,64,broken clouds,61.14,61.61,61.14,61.14,99,10000,5.66
Saint Paul Harbor,US,5866583,1648789824,57.79,-152.4072,100,moderate rain,38.71,27.61,38.71,38.71,93,6437,25.32
Kaitangata,NZ,2208248,1648789830,-46.2817,169.8464,63,broken clouds,54.79,52.83,54.79,54.79,61,10000,7.23
East London,ZA,1006984,1648789796,-33.0153,27.9116,100,light rain,66.63,67.28,66.63,66.63,91,10000,11.05
Boguchany,RU,1509844,1648790003,58.3814,97.4531,100,overcast clouds,36.79,27.52,36.79,36.79,93,10000,15.64
Hilo,US,5855927,1648789825,19.7297,-155.09,100,light rain,71.22,72.55,70.61,73.26,96,10000,6.91
Guerrero Negro,MX,4021858,1648789646,27.9769,-114.0611,4,clear sky,58.91,58.21,58.91,58.91,79,10000,16.22
Skjervøy,NO,777682,1648790004,70.0311,20.9714,100,overcast clouds,23.0,10.4,23.0,23.0,70,10000,18.43
Mossamedes,AO,3347019,1648789823,-15.1961,12.1522,96,overcast clouds,71.92,72.39,71.92,71.92,76,10000,6.85
Makkah al Mukarramah,SA,104515,1648790005,21.4267,39.8261,23,few clouds,83.73,81.23,83.73,83.73,23,10000,3.09
Atuona,PF,4020109,1648789751,-9.8,-139.0333,45,scattered clouds,78.93,78.93,78.93,78.93,72,10000,7.38
Loknya,RU,534423,1648790005,56.83,30.1467,98,overcast clouds,24.17,16.92,24.17,24.17,74,10000,5.99
Kruisfontein,ZA,986717,1648790006,-34.0033,24.7314,100,overcast clouds,62.89,62.58,62.89,62.89,79,10000,4.09
Saskylakh,RU,2017155,1648789757,71.9167,114.0833,100,overcast clouds,13.28,0.68,13.28,13.28,94,1013,10.76
Havøysund,NO,779622,1648790006,70.9963,24.6622,100,overcast clouds,26.83,16.29,26.83,26.83,65,10000,11.99
Yangi Marg`ilon,UZ,1513491,1648790006,40.4272,71.7189,3,clear sky,63.32,61.18,63.32,63.32,39,10000,6.91
Garoowe,SO,58933,1648790007,8.4054,48.4845,25,scattered clouds,77.11,77.81,77.11,77.11,70,10000,10.22
Luocheng,CN,1801983,1648790007,29.3848,104.0286,100,light rain,57.56,56.26,57.56,57.56,69,10000,2.48
Kapaa,US,5848280,1648789507,22.0752,-159.319,40,scattered clouds,73.85,74.98,73.47,78.78,86,10000,19.57
South Venice,US,4173593,1648790008,27.0531,-82.4243,75,mist,77.07,78.76,75.06,77.99,91,4828,13.8
Alofi,NU,4036284,1648790008,-19.0595,-169.9187,84,broken clouds,81.41,86.32,81.41,81.41,75,10000,7.47
Barrow,US,5880054,1648789797,71.2906,-156.7887,0,clear sky,-9.38,-21.98,-9.38,-9.38,77,10000,18.41
Māngrol,IN,1263752,1648790009,21.1167,70.1167,0,clear sky,83.43,84.61,83.43,83.43,51,10000,4.94
Shimoda,JP,1852357,1648790009,34.6667,138.95,100,overcast clouds,46.11,39.76,46.11,46.11,78,10000,14.67
Omboué,GA,2396853,1648790010,-1.5746,9.2618,100,overcast clouds,76.17,77.81,76.17,76.17,92,10000,4.88
Tongchuanshi,CN,1795196,1648790010,35.0806,109.0897,27,scattered clouds,61.47,58.68,61.47,61.47,29,10000,6.89
San Patricio,US,4726521,1648790010,28.017,-97.5169,95,overcast clouds,65.21,64.72,60.17,66.88,70,10000,10.42
Caborca,MX,3996893,1648790011,30.5838,-111.101,0,clear sky,61.57,58.75,61.57,61.57,28,10000,1.39
Turaif,SA,101312,1648790011,31.6725,38.6637,51,broken clouds,61.47,58.39,61.47,61.47,23,10000,13.56
Coos Bay,US,5720495,1648790012,43.3665,-124.2179,0,clear sky,44.78,40.95,39.31,47.93,93,10000,6.91
Mahébourg,MU,934322,1648789764,-20.4081,57.7,90,light rain,77.25,78.35,77.25,77.25,78,10000,20.45
Rome,US,5134295,1648790012,43.2128,-75.4557,100,overcast clouds,44.76,39.85,42.58,46.38,79,10000,9.22
Kyren,RU,2021031,1648790013,51.6828,102.1408,93,overcast clouds,37.9,37.9,37.9,37.9,64,10000,1.72
Qaanaaq,GL,3831208,1648789755,77.484,-69.3632,100,overcast clouds,21.88,16.16,21.88,21.88,88,2930,4.18
Port Elizabeth,ZA,964420,1648789759,-33.918,25.5701,100,overcast clouds,64.31,64.49,64.31,65.1,86,10000,8.99
Srandakan,ID,1626493,1648790013,-7.9386,110.2506,47,scattered clouds,87.31,95.02,87.31,87.31,63,10000,7.74
Port-Gentil,GA,2396518,1648790014,-0.7193,8.7815,100,overcast clouds,79.34,79.34,79.34,79.34,85,10000,10.69
Cayenne,GF,3382160,1648789746,4.9333,-52.3333,75,broken clouds,81.09,78.8,78.84,81.09,1,10000,4.61
Ambon City,ID,1651531,1648790014,-3.6954,128.1814,40,scattered clouds,89.74,100.2,89.74,89.74,62,10000,12.66
College,US,5859699,1648790015,64.8569,-147.8028,0,clear sky,17.46,4.86,16.09,18.07,43,10000,11.5
Mopipi,BW,933288,1648790015,-21.1833,24.8833,0,clear sky,67.3,65.98,67.3,67.3,48,10000,7.49
Byron Bay,AU,2172880,1648790016,-28.65,153.6167,34,scattered clouds,77.94,78.35,76.71,77.94,62,10000,12.84
Thompson,CA,6165406,1648789754,55.7435,-97.8558,100,light snow,26.92,21.38,26.92,26.92,97,456,4.74
Port Lincoln,AU,2063036,1648790016,-34.7333,135.8667,6,clear sky,66.0,64.74,66.0,66.0,52,10000,20.8
Dakar,SN,2253354,1648789860,14.6937,-17.4441,0,clear sky,68.88,69.28,68.88,68.88,81,10000,14.34
Norman Wells,CA,6089245,1648790017,65.282,-126.8329,80,broken clouds,-22.2,-34.58,-22.2,-22.2,100,10000,4.03
Cabedelo,BR,3404558,1648790017,-6.9811,-34.8339,88,overcast clouds,78.76,78.76,78.76,78.76,80,10000,7.34
Ongandjera,NA,3354178,1648790018,-17.8833,15.0667,97,overcast clouds,68.79,69.28,68.79,68.79,83,10000,4.76
Puerto Ayora,EC,3652764,1648789759,-0.7393,-90.3518,97,overcast clouds,73.54,75.25,73.54,73.54,99,10000,1.43
San Juan Bautista,PE,3929493,1648790018,-14.0108,-75.7358,67,broken clouds,71.24,71.26,71.24,71.24,68,10000,2.17
Hay River,CA,5972762,1648790022,60.8156,-115.7999,97,overcast clouds,0.52,-12.08,0.52,0.52,92,5782,11.43
Bamberg,DE,2952984,1648790022,49.8795,10.8863,100,overcast clouds,35.38,30.18,33.91,37.51,93,35,6.11
Nara,JP,1855612,1648790022,34.6851,135.8049,80,broken clouds,53.87,50.41,47.7,53.96,31,10000,16.93
Arrondissement de Rodez,FR,2983153,1648790023,44.5,2.5833,100,light snow,31.62,19.02,31.03,32.31,100,6000,24.16
Laas,IT,3175096,1648790023,46.6166,10.7002,100,overcast clouds,39.16,36.14,37.36,42.03,96,175,4.23
Constitución,CL,3893726,1648790024,-35.3333,-72.4167,45,scattered clouds,55.54,53.33,55.54,55.54,54,10000,7.76
Fernandópolis,BR,3463432,1648790024,-20.2839,-50.2464,85,light rain,66.7,67.68,66.7,66.7,98,10000,5.53
Khorixas,NA,3356213,1648789803,-20.3667,14.9667,90,overcast clouds,74.5,74.7,74.5,74.5,65,10000,3.58
Yellowknife,CA,6185377,1648789837,62.456,-114.3525,100,overcast clouds,0.41,-12.19,0.28,0.41,87,10000,15.55
Kharabali,RU,550671,1648790025,47.4196,47.2568,43,scattered clouds,53.83,51.31,53.83,53.83,51,10000,12.19
Nanortalik,GL,3421765,1648789798,60.1432,-45.2371,100,overcast clouds,34.36,29.89,34.36,34.36,82,10000,4.94
Udachny,RU,2014624,1648790025,66.4167,112.4,100,overcast clouds,28.45,17.94,28.45,28.45,86,4341,12.84
Husavik,IS,2629833,1648790026,66.0449,-17.3389,98,light snow,31.75,27.07,31.75,31.75,96,2137,4.7
Poplar Bluff,US,4404233,1648790026,36.757,-90.3929,100,overcast clouds,40.89,36.82,39.33,42.58,65,10000,5.99
Bathsheba,BB,3374083,1648790026,13.2167,-59.5167,100,overcast clouds,77.45,78.37,77.45,77.45,74,10000,20.13
Ulaangom,MN,1515029,1648790027,49.9811,92.0667,99,overcast clouds,21.58,16.34,21.58,21.58,86,9511,3.78
Omsukchan,RU,2122493,1648790027,62.5333,155.8,100,overcast clouds,5.56,-7.04,5.56,5.56,84,5810,13.94
Klaksvík,FO,2618795,1648790028,62.2266,-6.589,100,overcast clouds,36.52,30.99,36.52,36.52,65,10000,6.91
Taungdwingyi,MM,1294041,1648790028,20.0167,95.55,24,few clouds,98.04,95.68,98.04,98.04,22,10000,8.97
Castro,BR,3466704,1648790028,-24.7911,-50.0119,100,overcast clouds,53.76,53.49,53.76,53.76,99,620,5.84
Pauini,BR,3662927,1648790029,-7.7136,-66.9764,100,overcast clouds,72.84,74.53,72.84,72.84,100,4251,2.66
Ribeira Grande,PT,3372707,1648789817,38.5167,-28.7,100,overcast clouds,62.04,62.22,62.04,62.04,91,10000,24.0
Hobart,AU,2163355,1648789821,-42.8794,147.3294,75,broken clouds,60.8,59.97,58.86,63.27,72,10000,11.5
Matara,LK,1235846,1648790029,5.9485,80.5353,13,few clouds,83.61,90.25,83.61,83.61,72,10000,3.91
Saint-Philippe,RE,935215,1648789810,-21.3585,55.7679,80,moderate rain,80.64,85.96,74.1,81.21,82,8165,16.49
Hasaki,JP,2112802,1648789800,35.7333,140.8333,100,overcast clouds,48.6,40.86,48.6,52.29,41,10000,25.12
Sørland,NO,3137469,1648790030,67.667,12.6934,100,overcast clouds,33.3,29.1,33.3,33.3,57,10000,4.45
Ankang,CN,1789065,1648790030,32.68,109.0172,96,overcast clouds,65.61,64.02,65.61,65.61,46,10000,3.69
Solnechnyy,RU,2016307,1648790031,50.7214,136.6319,89,light snow,27.86,21.61,27.86,27.86,67,3030,5.64
São Miguel,BR,3388304,1648789874,-5.4667,-35.3667,100,overcast clouds,75.97,76.89,75.97,75.97,77,10000,8.52
Dalvik,IS,2632287,1648790031,65.9702,-18.5286,95,overcast clouds,33.82,31.12,33.82,33.82,91,10000,3.2
Bonthe,SL,2409914,1648789805,7.5264,-12.505,79,broken clouds,77.18,79.02,77.18,77.18,94,10000,3.78
Albany,US,5106841,1648789749,42.6001,-73.9662,100,light rain,50.14,48.96,47.25,54.59,87,10000,5.95
Bilibino,RU,2126682,1648790032,68.0546,166.4372,64,broken clouds,0.73,0.73,0.73,0.73,88,10000,2.01
Denizli Province,TR,317106,1648789955,37.8402,29.0698,78,broken clouds,59.36,57.16,59.36,59.36,46,10000,4.18
Russell,US,4047434,1648790033,32.3502,-85.1999,0,clear sky,50.81,49.35,48.06,58.6,80,10000,4.61
Lima,PE,3936456,1648789762,-12.0432,-77.0282,0,clear sky,69.91,70.03,64.65,69.91,73,10000,9.22
Geraldton,AU,2070998,1648789829,-28.7667,114.6,75,moderate rain,81.01,83.23,81.01,81.01,61,10000,24.16
Saint George,US,5546220,1648789711,37.1041,-113.5841,20,few clouds,63.63,61.2,59.43,65.62,32,10000,1.99
Ürümqi,CN,1529102,1648790033,43.801,87.6005,0,clear sky,49.15,49.15,49.15,49.15,37,10000,2.24
Chincha Alta,PE,3943789,1648790034,-13.4099,-76.1323,54,broken clouds,63.19,63.12,63.19,63.19,83,10000,2.86
Berlevåg,NO,780687,1648789812,70.8578,29.0864,40,light snow,28.35,17.38,28.35,28.35,74,10000,13.8
Cururupu,BR,3401148,1648790034,-1.8283,-44.8683,99,light rain,72.41,73.96,72.41,72.41,98,10000,1.21
Sydney,AU,2147714,1648789648,-33.8679,151.2073,75,light rain,64.36,63.99,63.23,65.77,74,10000,36.82
Makat,KZ,608872,1648790035,47.6469,53.3463,12,few clouds,54.3,51.31,54.3,54.3,40,10000,8.34
Longyan,CN,1802276,1648790035,25.1072,117.0225,100,overcast clouds,60.51,60.58,60.51,60.51,92,10000,2.19
Yenagoa,NG,2318123,1648790036,4.9247,6.2642,97,overcast clouds,78.01,79.93,78.01,78.01,94,10000,3.31
Barinas,VE,3648546,1648790036,8.6226,-70.2075,94,overcast clouds,79.95,79.95,79.95,79.95,49,10000,4.52
Vao,NC,2137773,1648790037,-22.6667,167.4833,33,scattered clouds,79.2,79.2,79.2,79.2,87,10000,14.79
Chui,UY,3443061,1648790037,-33.6971,-53.4616,85,overcast clouds,53.94,52.7,53.94,53.94,78,10000,5.57
Marihatag,PH,1700933,1648790038,8.7936,126.2969,100,overcast clouds,84.16,90.18,84.16,84.16,68,10000,6.11
Champerico,GT,3598787,1648790038,14.3,-91.9167,77,broken clouds,81.45,84.51,81.45,81.45,65,10000,5.93
Clyde River,CA,5924351,1648790038,70.4692,-68.5914,77,broken clouds,1.04,1.04,1.04,1.04,93,10000,2.39
San Jose,US,5392171,1648789925,37.3394,-121.895,0,clear sky,52.29,50.79,48.04,54.57,76,10000,5.75
Zhigansk,RU,2012530,1648790039,66.7697,123.3711,100,light snow,18.77,6.17,18.77,18.77,93,171,22.95
Stornoway,GB,2636790,1648790039,58.2093,-6.3865,100,overcast clouds,34.74,28.15,34.03,35.56,88,10000,8.05
Labuhan,ID,8079926,1648790043,-6.8844,112.2051,79,broken clouds,79.23,79.23,79.23,79.23,85,10000,6.73
Narsaq,GL,3421719,1648789798,60.9167,-46.05,100,overcast clouds,48.42,46.08,48.42,48.42,67,10000,5.46
Rovaniemi,FI,638936,1648789824,66.5,25.7167,0,clear sky,17.01,11.59,17.01,17.01,73,10000,3.44
Port Macquarie,AU,2152659,1648790043,-31.4333,152.9167,50,scattered clouds,70.9,71.2,70.9,70.9,75,10000,17.54
Ponta do Sol,PT,2264557,1648789818,32.6667,-17.1,94,overcast clouds,60.76,60.3,59.0,61.12,80,10000,2.24
Kenai,US,5866063,1648790044,60.5544,-151.2583,100,overcast clouds,39.18,29.23,37.45,41.09,66,10000,20.71
Ovalle,CL,3877918,1648790044,-30.5983,-71.2003,0,clear sky,65.07,63.48,65.07,65.07,47,10000,0.94
Sabang,ID,1214026,1648790045,5.8933,95.3214,84,broken clouds,83.35,89.11,83.35,83.35,70,10000,5.03
Suntar,RU,2015913,1648790045,62.1444,117.6319,100,light snow,32.18,23.34,32.18,32.18,97,467,11.27
Cidreira,BR,3466165,1648790045,-30.1811,-50.2056,86,overcast clouds,60.82,59.88,60.82,60.82,70,10000,3.96
Lugovoy,KZ,1521293,1648790046,42.9472,72.7644,99,overcast clouds,60.31,57.51,60.31,60.31,31,10000,1.97
Ahipara,NZ,2194098,1648789812,-35.1667,173.1667,100,overcast clouds,70.48,70.66,70.48,70.48,73,10000,2.8
Vestmannaeyjar,IS,3412093,1648790046,63.4427,-20.2734,99,overcast clouds,39.24,33.82,39.24,39.24,70,10000,7.7
Fairbanks,US,5861897,1648789539,64.8378,-147.7164,0,clear sky,16.47,3.87,13.48,17.94,42,10000,11.5
Butaritari,KI,2110227,1648789756,3.0707,172.7902,89,light rain,81.7,87.37,81.7,81.7,77,10000,16.78
Arraial do Cabo,BR,3471451,1648789807,-22.9661,-42.0278,31,heavy intensity rain,75.49,76.82,75.49,75.49,87,7492,13.71
Našice,HR,3194581,1648790047,45.4886,18.0878,100,overcast clouds,49.86,49.86,49.55,49.95,98,10000,2.44
Pavlohrad,UA,697889,1648790048,48.5167,35.8667,100,overcast clouds,54.63,52.38,54.63,54.63,55,10000,15.05
Dikson,RU,1507390,1648789809,73.5069,80.5464,38,scattered clouds,8.44,-3.98,8.44,8.44,88,10000,8.14
Oleksandrivka,UA,713676,1648790048,46.8383,32.7612,97,overcast clouds,53.4,51.49,53.4,53.4,65,10000,18.23
Jiehu,CN,1805884,1648790048,35.5428,118.455,96,overcast clouds,55.62,51.73,55.62,55.62,18,10000,6.6
Poya,NC,2138522,1648790049,-21.35,165.15,54,broken clouds,82.99,90.37,82.99,82.99,77,10000,3.85
Saldanha,ZA,3361934,1648789762,-33.0117,17.9442,0,clear sky,60.75,60.37,60.75,60.75,82,10000,17.02
Port-Cartier,CA,6111696,1648790050,50.0334,-66.8654,100,snow,30.74,19.96,30.74,30.74,98,907,15.05
Saint-Joseph,RE,6690296,1648790050,-21.3667,55.6167,71,light rain,79.65,79.65,73.09,80.2,77,10000,16.17
Jumla,NP,1283285,1648790050,29.2747,82.1838,0,clear sky,71.38,69.06,71.38,71.38,18,10000,5.61
Novopavlovka,RU,2018896,1648790051,51.2172,109.2091,34,scattered clouds,39.6,33.8,39.6,39.6,54,10000,8.57
Hervey Bay,AU,2146219,1648790051,-25.2986,152.8535,41,scattered clouds,79.02,79.02,79.02,79.02,67,10000,5.01
Straumen,NO,3135728,1648790051,63.8709,11.2999,56,broken clouds,24.8,24.8,24.8,24.8,85,10000,2.95
Vardø,NO,777019,1648790052,70.3705,31.1107,100,light snow,26.37,16.57,26.37,26.37,77,6740,10.31
Leningradskiy,RU,2123814,1648790052,69.3833,178.4167,99,overcast clouds,6.76,-4.59,6.76,6.76,96,2605,6.69
Kiryat Gat,IL,293842,1648790053,31.61,34.7642,25,scattered clouds,75.4,74.66,56.08,75.4,43,10000,1.54
Bambous Virieux,MU,1106677,1648790053,-20.3428,57.7575,88,light rain,77.22,78.3,77.22,77.22,78,10000,19.91
Leshukonskoye,RU,535839,1648790054,64.8989,45.7622,97,overcast clouds,18.81,9.37,18.81,18.81,87,10000,7.27
Tongliao,CN,2034400,1648790054,43.6125,122.2653,27,scattered clouds,48.58,44.46,48.58,48.58,15,10000,9.48
Uvalde,US,4738723,1648790055,29.3669,-99.767,0,clear sky,65.26,62.47,64.31,68.13,21,10000,10.36
Kościan,PL,3095151,1648790055,52.0883,16.6487,100,overcast clouds,34.7,24.66,32.25,36.95,46,10000,16.15
Salalah,OM,286621,1648789971,17.0151,54.0924,0,clear sky,86.09,84.11,86.09,86.09,32,10000,4.61
Riberalta,BO,3906466,1648790056,-10.9833,-66.1,99,overcast clouds,63.61,63.99,63.61,63.61,92,10000,5.7
Camaná,PE,3945985,1648790056,-16.6228,-72.7111,49,scattered clouds,68.32,68.7,68.32,68.32,82,10000,5.61
Hamilton,US,4513583,1648789937,39.1834,-84.5333,100,light rain,37.76,30.7,36.16,39.09,89,10000,10.36
Padang,ID,1633419,1648790057,-0.9492,100.3543,15,few clouds,87.85,92.7,87.85,87.85,55,10000,6.98
Manhush,UA,697613,1648790057,47.0558,37.3107,100,overcast clouds,51.48,49.51,51.48,51.48,68,10000,19.62
Lodja,CD,211647,1648790058,-3.4833,23.4333,90,overcast clouds,68.02,69.13,68.02,68.02,98,10000,2.73
Buta,CD,217570,1648790058,2.7858,24.73,86,overcast clouds,70.86,71.98,70.86,70.86,92,10000,2.17
Souillac,MU,933995,1648790058,-20.5167,57.5167,95,light rain,78.17,79.45,78.17,78.17,80,10000,20.02
Dingle,PH,1714733,1648790059,10.9995,122.6711,87,overcast clouds,88.07,93.96,88.07,88.07,57,10000,12.77
Tazovsky,RU,1489853,1648790059,67.4667,78.7,100,overcast clouds,14.95,2.35,14.95,14.95,86,10000,17.16
Conceição da Barra,BR,3465769,1648790059,-18.5933,-39.7322,3,clear sky,73.94,75.4,73.94,73.94,93,10000,2.73
Mount Isa,AU,2065594,1648789773,-20.7333,139.5,0,clear sky,92.97,88.59,92.97,92.97,14,10000,5.75
Kloulklubed,PW,7671223,1648790060,7.0419,134.2556,95,overcast clouds,82.9,88.47,82.9,82.9,71,10000,4.74
Port Augusta,AU,2063056,1648790060,-32.5,137.7667,1,clear sky,77.9,76.6,77.9,77.9,26,10000,16.49
Chase,CA,5920381,1648790061,50.8165,-119.6857,36,scattered clouds,38.48,38.48,38.08,42.33,87,10000,1.63
Leh,IN,1264976,1648790061,34.1667,77.5833,0,clear sky,32.29,28.83,32.29,32.29,46,10000,3.62
Nikolskoye,RU,546105,1648789753,59.7035,30.7861,27,scattered clouds,24.73,24.73,22.89,26.87,86,10000,0.72
Tomari,RU,2120530,1648790065,47.7658,142.0683,85,overcast clouds,32.76,26.22,32.76,32.76,54,10000,7.27
Harper,LR,2276492,1648789814,4.375,-7.7169,14,few clouds,79.32,79.32,79.32,79.32,87,10000,5.97
Terracina,IT,6541893,1648790027,41.2863,13.2217,100,overcast clouds,52.92,52.56,50.34,57.04,99,10000,2.04
Celestún,MX,3531368,1648790065,20.8667,-90.4,6,clear sky,78.53,80.08,78.53,78.53,85,10000,6.93
Margate,GB,2643044,1648790066,51.3813,1.3862,100,overcast clouds,37.06,27.16,34.7,37.69,84,3372,18.01
Talnakh,RU,1490256,1648790066,69.4865,88.3972,100,light snow,13.21,3.02,13.21,13.21,92,229,6.82
Grindavik,IS,3416888,1648790066,63.8424,-22.4338,75,light rain,39.67,33.58,39.67,39.67,93,10000,9.22
Belgrade,RS,792680,1648790067,44.804,20.4651,0,clear sky,57.06,55.76,53.42,58.33,70,10000,16.11
Tabuk,PH,1684803,1648790067,17.4189,121.4443,41,scattered clouds,87.6,92.23,87.6,87.6,55,10000,5.21
Coquimbo,CL,3893629,1648789828,-29.9533,-71.3436,0,clear sky,53.33,52.74,53.33,53.33,93,10000,3.44
Airai,TL,1651810,1648790068,-8.9266,125.4092,3,clear sky,75.47,74.88,75.47,75.47,46,10000,1.41
San Juan,AR,3837213,1648790068,-31.5375,-68.5364,0,clear sky,56.53,53.02,56.53,56.53,24,10000,3.0
Hornepayne,CA,5977046,1648790068,49.2138,-84.7705,100,overcast clouds,16.74,4.14,16.74,16.74,92,1242,11.39
Aquiraz,BR,3407407,1648790010,-3.9014,-38.3911,100,overcast clouds,78.89,78.89,78.89,81.18,84,10000,6.11
Mount Gambier,AU,2156643,1648789807,-37.8333,140.7667,0,clear sky,66.6,65.26,66.6,66.6,49,10000,15.52
Bela Vista,BR,3470177,1648790069,-22.1089,-56.5211,99,overcast clouds,60.08,58.46,60.08,60.08,57,10000,4.63
Touros,BR,3386213,1648790069,-5.1989,-35.4608,100,overcast clouds,80.19,83.93,80.19,80.19,75,10000,9.15
Beyneu,KZ,610298,1648790070,45.3167,55.2,13,few clouds,53.31,50.65,53.31,53.31,49,10000,7.96
Waingapu,ID,1622318,1648790070,-9.6567,120.2641,11,few clouds,85.24,93.67,85.24,85.24,71,10000,7.05
Ostrovnoy,RU,556268,1648790071,68.0531,39.5131,100,light snow,22.6,10.0,22.6,22.6,87,1307,14.52
Cullinan,ZA,1012413,1648790071,-25.6709,28.5236,0,clear sky,61.18,59.81,61.18,61.18,60,10000,3.13
Hong Kong,HK,1819729,1648789827,22.2855,114.1577,100,overcast clouds,69.31,70.12,67.24,71.96,89,10000,3.0
Helong,CN,2036933,1648790072,42.5397,128.9972,0,clear sky,44.46,39.16,44.46,44.46,25,10000,10.0
Gogrial,SS,374739,1648790072,8.5332,28.1004,4,clear sky,83.23,80.73,83.23,83.23,20,10000,4.03
Urussanga,BR,3445667,1648790073,-28.5178,-49.3208,58,broken clouds,57.42,56.25,57.42,57.42,72,10000,2.19
Te Anau,NZ,2181625,1648790073,-45.4167,167.7167,58,broken clouds,58.01,56.48,58.01,58.01,63,10000,1.97
Alice Springs,AU,2077895,1648790073,-23.7,133.8833,2,clear sky,76.55,74.98,76.55,76.55,23,10000,12.66
Joensuu,FI,655808,1648790074,62.6012,29.7632,0,clear sky,1.89,1.89,1.89,1.89,92,10000,0.0
Iwamizawa,JP,2129870,1648790074,43.2003,141.7597,96,overcast clouds,38.26,29.66,37.29,40.62,52,10000,14.85
Wick,GB,2633982,1648790075,58.4333,-3.0833,75,broken clouds,30.25,24.35,30.25,30.25,100,10000,5.75
Gwanda,ZW,890516,1648790075,-20.9333,29.0,0,clear sky,63.32,62.17,63.32,63.32,60,10000,4.09
Bilma,NE,2446796,1648790075,18.6853,12.9164,0,clear sky,70.99,68.02,70.99,70.99,5,10000,5.73
Kahului,US,5847411,1648789905,20.8947,-156.47,75,broken clouds,73.92,74.77,70.97,74.84,80,10000,14.97
Vila Franca do Campo,PT,3372472,1648790076,37.7167,-25.4333,100,overcast clouds,59.41,59.32,59.41,59.41,91,10000,10.6
George,ZA,1002145,1648790076,-33.963,22.4617,74,broken clouds,60.93,60.44,60.93,60.93,79,10000,4.03
Ormara,PK,1168700,1648790077,25.2088,64.6357,0,clear sky,83.68,81.95,83.68,83.68,32,10000,3.83
Ixtapa,MX,4004293,1648790077,20.7,-105.2,61,broken clouds,69.22,69.75,69.22,69.22,83,10000,1.01
Bengkulu,ID,1649150,1648790078,-3.8004,102.2655,8,clear sky,84.88,87.31,84.88,84.88,54,10000,6.73
Hailar,CN,2037078,1648790078,49.2,119.7,61,broken clouds,35.6,26.96,35.6,35.6,52,10000,12.91
Vengerovo,RU,1487615,1648790078,55.6848,76.7471,100,overcast clouds,32.7,26.51,32.7,32.7,100,275,6.76
Chhor,PK,1181022,1648790079,25.5167,69.7667,0,clear sky,96.93,91.74,96.93,96.93,4,10000,2.24
Palmer,US,4946620,1648790079,42.1584,-72.3287,100,heavy intensity rain,56.05,55.4,54.28,57.61,86,10000,11.5
Lüderitz,NA,3355672,1648790080,-26.6481,15.1594,0,clear sky,58.41,57.76,58.41,58.41,81,10000,17.81
Fare,PF,4034496,1648790080,-16.7,-151.0167,28,scattered clouds,82.15,86.27,82.15,82.15,68,10000,12.44
Lincoln Park,US,4999311,1648790080,42.2506,-83.1785,100,overcast clouds,36.28,26.73,34.11,37.98,83,10000,16.11
Westport,US,4845585,1648790081,41.1415,-73.3579,100,mist,56.86,56.75,52.83,59.27,96,6437,9.22
Ourém,PT,2265388,1648790081,39.6417,-8.5919,41,scattered clouds,46.74,43.0,46.04,49.66,90,10000,7.56
Itoman,JP,1861280,1648790082,26.1247,127.6694,75,broken clouds,71.44,71.29,70.18,71.62,64,10000,21.85
Novato,US,5378044,1648789800,38.1074,-122.5697,20,few clouds,51.48,50.27,48.2,56.1,84,10000,3.0
Honiara,SB,2108502,1648790082,-9.4333,159.95,99,heavy intensity rain,78.96,78.96,78.96,78.96,90,4571,4.07
Bundaberg,AU,2173323,1648789944,-24.85,152.35,40,scattered clouds,82.22,85.55,80.89,82.22,64,10000,11.5
Chapais,CA,5919850,1648790083,49.7834,-74.8492,100,light snow,34.52,25.9,34.52,34.52,99,174,12.15
Guarapari,BR,3461888,1648790083,-20.6667,-40.4975,8,clear sky,76.89,78.75,76.89,76.89,95,10000,7.05
Maniitsoq,GL,3421982,1648790084,65.4167,-52.9,29,scattered clouds,21.13,13.89,21.13,21.13,81,10000,5.39
Codrington,AU,2171099,1648790087,-38.2667,141.9667,52,broken clouds,63.82,62.4,63.82,63.82,53,10000,20.33
Quelimane,MZ,1028434,1648790087,-17.8786,36.8883,31,scattered clouds,75.09,76.71,75.09,75.09,94,10000,2.08
Timbiquí,CO,3667070,1648790088,2.7717,-77.6654,100,light rain,74.5,76.12,74.5,74.5,95,10000,4.14
Tara,RU,1490140,1648790088,56.8944,74.371,97,overcast clouds,30.06,30.06,30.06,30.06,90,10000,1.43
Rāwah,IQ,92004,1648790088,34.4816,41.9093,18,few clouds,68.27,66.02,68.27,68.27,26,10000,5.01
Prieska,ZA,964090,1648790089,-29.6641,22.7474,0,clear sky,65.39,65.34,65.39,65.39,79,10000,2.86
Ancud,CL,3899695,1648789631,-41.8697,-73.8203,58,broken clouds,47.86,47.05,47.86,47.86,88,10000,3.22
Launceston,AU,2160517,1648789874,-41.45,147.1667,100,overcast clouds,63.66,62.26,62.24,65.34,54,10000,19.57
Juneau,US,5554072,1648790090,58.3019,-134.4197,100,light rain,37.56,29.53,35.1,40.21,95,10000,12.66
Novobelokatay,RU,519027,1648790090,55.7062,58.9549,100,snow,29.17,24.03,29.17,29.17,97,118,4.72
Bay Roberts,CA,5895424,1648790091,47.5999,-53.2648,51,broken clouds,34.7,28.13,31.28,35.06,75,10000,8.01
Urambo,TZ,149172,1648790091,-5.0667,32.05,50,scattered clouds,64.92,65.48,64.92,64.92,93,10000,3.33
Mayo,US,4362001,1648790092,38.8876,-76.5119,40,scattered clouds,59.95,59.97,55.38,64.56,92,10000,10.36
Tiksi,RU,2015306,1648789801,71.6872,128.8694,100,overcast clouds,14.5,7.18,14.5,14.5,88,2278,4.5
Davila,PH,1715335,1648790092,18.4726,120.5763,13,few clouds,84.31,91.49,84.31,84.31,71,10000,29.62
Merauke,ID,2082539,1648790092,-8.4667,140.3333,89,overcast clouds,83.73,89.6,83.73,83.73,69,10000,8.28
Pahrump,US,5509851,1648790093,36.2083,-115.9839,99,overcast clouds,62.76,60.06,59.05,65.44,28,10000,3.0
Tiszavasvári,HU,714692,1648790093,47.9667,21.35,100,overcast clouds,50.7,49.98,50.7,50.7,96,10000,2.59
Karratha,AU,6620339,1648790094,-20.7377,116.8463,32,scattered clouds,89.94,95.88,89.94,89.94,53,10000,12.93
Tessalit,ML,2449893,1648790094,20.1986,1.0114,100,overcast clouds,76.59,74.64,76.59,76.59,15,10000,6.98
Faya,SA,110690,1648790094,18.3851,42.4509,0,clear sky,61.32,57.96,61.32,61.32,17,10000,7.45
Bethel,US,5282297,1648789809,41.3712,-73.414,100,overcast clouds,56.1,55.78,53.35,57.72,93,10000,0.0
Oranjemund,NA,3354071,1648790095,-28.55,16.4333,33,scattered clouds,57.94,57.79,57.94,57.94,93,10000,13.44
Mogadishu,SO,53654,1648789800,2.0371,45.3438,21,few clouds,82.49,88.9,82.49,82.49,76,10000,15.03
Hokitika,NZ,2206894,1648790095,-42.7167,170.9667,91,overcast clouds,65.55,65.37,65.55,65.55,76,10000,7.38
Provideniya,RU,4031574,1648790096,64.3833,-173.3,75,broken clouds,23.11,10.51,23.11,23.36,80,10000,15.99
Kichera,RU,2022129,1648790096,55.9375,110.0997,100,light snow,27.88,20.48,27.88,27.88,95,172,7.07
Fortuna,US,5563839,1648789960,40.5982,-124.1573,100,overcast clouds,48.07,44.91,43.14,48.92,87,10000,6.91
Winnemucca,US,5710360,1648790097,40.973,-117.7357,0,clear sky,35.65,32.9,35.65,35.65,48,10000,3.44
Kudat,MY,1736458,1648790097,6.8837,116.8477,77,broken clouds,85.26,92.16,85.26,85.26,67,10000,5.3
Grand Gaube,MU,934479,1648790098,-20.0064,57.6608,57,light rain,77.38,78.76,77.38,77.4,84,10000,8.01
Mergen,CN,2035601,1648790098,49.1833,125.2167,18,few clouds,43.47,38.08,43.47,43.47,36,10000,9.62
Pervoye Maya,RU,828440,1648790098,56.164,44.7196,100,overcast clouds,30.29,23.63,30.29,30.29,93,6078,6.73
Tymovskoye,RU,2120334,1648790099,50.8456,142.655,86,overcast clouds,28.17,19.8,28.17,28.17,56,10000,8.59
Nuuk,GL,3421319,1648790099,64.1835,-51.7216,79,broken clouds,29.01,18.73,29.01,29.01,93,10000,12.66
Lakes Entrance,AU,2160735,1648790100,-37.8811,147.981,93,light rain,63.16,62.6,63.16,63.16,73,10000,16.33
Estância,BR,3463900,1648790100,-11.2683,-37.4383,54,broken clouds,73.42,74.7,73.42,73.42,90,10000,2.28
Ust'-Ilimsk,RU,2013952,1648790101,58.0006,102.6619,100,overcast clouds,36.09,28.17,36.09,36.09,95,4582,11.39
Lavaca,US,4720067,1648790101,28.615,-96.6261,93,overcast clouds,59.38,58.87,53.1,61.99,82,10000,9.31
Denpasar,ID,1645528,1648790102,-8.65,115.2167,40,scattered clouds,83.71,94.3,83.71,83.86,83,10000,5.75
Pevek,RU,2122090,1648790102,69.7008,170.3133,64,broken clouds,-9.31,-9.31,-9.31,-9.31,92,10000,2.04
Tiarei,PF,4033356,1648790103,-17.5333,-149.3333,43,scattered clouds,82.42,87.73,82.0,82.42,72,10000,12.84
Amarante do Maranhão,BR,3407755,1648790103,-5.5667,-46.7422,100,light rain,70.29,71.62,70.29,70.29,98,10000,2.71
Lerik,AZ,147611,1648790104,38.7726,48.4128,0,clear sky,47.12,47.12,47.12,47.12,46,10000,1.48
Luwuk,ID,1637001,1648790104,-0.9516,122.7875,64,broken clouds,88.05,96.69,88.05,88.05,63,10000,1.5
Necochea,AR,3430443,1648790105,-38.5473,-58.7368,0,clear sky,48.9,45.19,48.9,48.9,81,10000,8.57
Bongandanga,CD,218229,1648790105,1.5,21.05,65,broken clouds,73.44,73.9,73.44,73.44,73,10000,2.71
Coyhaique,CL,3894426,1648789981,-45.5752,-72.0662,0,clear sky,46.35,43.47,46.35,48.81,87,10000,5.75
Aljezur,PT,2271968,1648790106,37.3191,-8.8033,16,few clouds,52.61,51.62,52.61,52.61,86,10000,9.82
Lompoc,US,5367788,1648789821,34.6391,-120.4579,0,mist,50.18,48.85,48.52,55.13,84,10000,25.99
Ambilobe,MG,1082243,1648790107,-13.2,49.05,70,broken clouds,78.06,79.52,78.06,78.06,84,10000,2.68
Makakilo City,US,5850554,1648790107,21.3469,-158.0858,20,few clouds,74.66,75.07,69.19,77.32,69,10000,8.05
Kentau,KZ,1522751,1648790107,43.5206,68.5094,100,overcast clouds,59.05,56.16,59.05,59.05,32,10000,2.24
Porto-Novo,BJ,2392087,1648790111,6.4965,2.6036,83,broken clouds,80.58,86.36,80.58,80.58,85,10000,6.15
Novouzensk,RU,517739,1648790111,50.4592,48.1431,97,overcast clouds,49.86,44.82,49.86,49.86,71,10000,13.56
Ocean City,US,4503351,1648790112,39.2776,-74.5746,99,overcast clouds,55.15,54.79,50.0,62.85,94,671,10.0
Bousso,TD,2434584,1648790112,10.4795,16.7117,55,broken clouds,79.03,79.03,79.03,79.03,16,10000,7.16
Soeng Sang,TH,1606213,1648790112,14.4264,102.4606,100,overcast clouds,83.23,86.5,83.23,83.23,61,10000,13.89
Washington,US,5815135,1648790107,47.5001,-120.5015,4,clear sky,39.33,35.15,33.19,43.2,50,10000,5.73
Sacramento,US,5389519,1648789362,38.4666,-121.3177,20,few clouds,56.68,55.47,52.83,59.0,73,10000,5.75
Palmeira,BR,3455425,1648790113,-25.4294,-50.0064,100,overcast clouds,52.16,51.67,52.16,52.16,98,10000,7.72
Mocuba,MZ,1024312,1648790113,-16.8392,36.9856,26,scattered clouds,72.68,74.16,72.68,72.68,96,10000,0.58
Flinders,AU,6255012,1648790114,-34.5833,150.8552,100,overcast clouds,63.23,62.96,59.38,66.18,79,10000,8.99
Mountain Home,US,5601615,1648790051,43.133,-115.6912,0,clear sky,40.48,33.64,40.48,40.48,100,10000,11.5
Rabo de Peixe,PT,3372745,1648790114,37.8,-25.5833,75,broken clouds,58.51,58.48,58.51,58.51,94,9000,13.8
Erbil,IQ,95446,1648790115,36.1926,44.0106,4,clear sky,67.96,66.11,67.96,67.96,35,10000,3.29
Seymchan,RU,2121373,1648790115,62.8833,152.4333,100,overcast clouds,11.12,-1.48,11.12,11.12,71,10000,11.92
Huanren,CN,2036713,1648790116,41.2647,125.3667,0,clear sky,49.78,49.44,49.78,49.78,23,10000,3.0
Jacmel,HT,3723779,1648790116,18.2342,-72.5347,8,clear sky,76.84,78.03,76.84,76.84,81,10000,3.0
Tabou,CI,2281120,1648790117,4.423,-7.3528,29,scattered clouds,79.09,79.09,79.09,79.09,88,10000,6.2
Sarangani,PH,1687186,1648789812,5.4033,125.4636,100,overcast clouds,82.74,88.12,82.74,82.74,71,10000,1.52
Samarai,PG,2132606,1648790117,-10.6167,150.6667,100,heavy intensity rain,81.05,86.94,81.05,81.05,82,10000,16.96
Plettenberg Bay,ZA,964712,1648790118,-34.0527,23.3716,100,overcast clouds,62.69,62.51,62.69,62.69,82,10000,2.98
Kutulik,RU,2021116,1648790119,53.3508,102.7839,98,overcast clouds,33.35,28.08,33.35,33.35,93,4976,5.7
Edemissen,DE,2933442,1648789950,52.387,10.2614,100,overcast clouds,30.9,26.8,28.85,33.75,89,10000,4.0
Verkhnevilyuysk,RU,2013639,1648790120,63.4453,120.3167,98,light snow,32.41,24.51,32.41,32.41,90,10000,9.48
Trelew,AR,3833883,1648789654,-43.249,-65.3051,100,overcast clouds,60.12,57.99,60.12,60.12,46,10000,5.61
Yumen,CN,1528998,1648790120,40.2833,97.2,0,clear sky,49.24,45.66,49.24,49.24,13,10000,8.48
Xiaoweizhai,CN,1789945,1648790120,26.1903,107.5125,100,overcast clouds,47.07,42.48,47.07,47.07,90,10000,9.8
Mahajanga,MG,1062663,1648790033,-15.7167,46.3167,40,scattered clouds,77.02,77.67,77.02,77.02,69,10000,11.5
Sulangan,PH,1685422,1648790121,11.1373,123.7228,67,broken clouds,82.36,88.88,82.36,82.36,77,10000,10.38
Tromsø,NO,6453316,1648790121,69.6496,18.957,40,scattered clouds,27.37,17.2,26.62,27.37,74,10000,11.5
San Policarpo,PH,1688696,1648790122,12.1791,125.5072,57,broken clouds,81.54,87.91,81.54,81.54,81,10000,10.8
Marabba,SD,370510,1648790122,12.35,32.1833,3,clear sky,82.99,80.44,82.99,82.99,17,10000,5.06
Belmonte,BR,3470137,1648790122,-15.8631,-38.8828,11,few clouds,76.6,77.81,76.6,76.6,82,10000,3.74
Lomovka,RU,534313,1648790123,53.9194,58.3672,99,overcast clouds,40.46,34.18,40.46,40.46,98,4012,10.07
Kununurra,AU,2068110,1648790109,-15.7667,128.7333,11,few clouds,98.58,97.99,98.58,98.58,26,10000,9.22
Plouzané,FR,2986626,1648790123,48.3833,-4.6167,20,few clouds,40.19,32.45,39.38,41.05,65,10000,13.8
Okhotsk,RU,2122605,1648790124,59.3833,143.3,100,overcast clouds,24.55,13.06,24.55,24.55,62,10000,12.71
Sunndalsøra,NO,3135377,1648790124,62.6754,8.5515,100,light snow,25.36,25.36,25.36,25.36,98,423,1.32
Krasnosel'kup,RU,1502073,1648790125,65.7,82.4667,99,overcast clouds,17.51,4.91,17.51,17.51,85,10000,19.15
Nehe,CN,2035610,1648790125,48.4833,124.8333,8,clear sky,46.49,42.35,46.49,46.49,24,10000,8.32
The Valley,AI,3573374,1648790125,18.217,-63.0578,17,few clouds,76.86,77.86,76.82,78.1,77,10000,23.47
Yar-Sale,RU,1486321,1648790126,66.8333,70.8333,100,overcast clouds,15.1,2.5,15.1,15.1,86,10000,16.51
Lopburi,TH,1609032,1648790126,14.7981,100.654,96,overcast clouds,97.02,105.6,89.91,97.02,44,10000,14.99
Naze,JP,1855540,1648790126,28.3667,129.4833,97,overcast clouds,65.32,64.94,65.32,65.32,72,10000,16.62
Carnarvon,AU,2074865,1648789760,-24.8667,113.6333,75,light rain,77.07,78.89,77.07,77.07,94,400,11.5
Karpathos,GR,260895,1648790127,35.507,27.2132,20,few clouds,60.76,60.39,60.76,60.76,82,10000,18.41
Poum,NC,2138555,1648790127,-20.2333,164.0167,69,broken clouds,81.64,87.71,81.64,81.64,79,10000,5.91
Cenade,RO,684612,1648790128,46.0587,24.0089,100,overcast clouds,55.47,54.77,55.11,55.47,86,10000,4.38
Brae,GB,2654970,1648790128,60.3964,-1.353,61,broken clouds,35.85,29.55,35.85,35.85,59,10000,7.96
Alyangula,AU,2079582,1648790129,-13.8483,136.4192,58,broken clouds,88.03,90.39,88.03,88.03,48,10000,14.97
Nouadhibou,MR,2377457,1648790129,20.931,-17.0347,0,clear sky,60.78,60.19,60.78,60.78,77,7000,18.41
Waitati,NZ,2179825,1648790130,-45.75,170.5667,87,overcast clouds,54.81,52.72,54.81,54.81,58,10000,5.99
Mandan,US,5690366,1648790130,46.8267,-100.8896,0,clear sky,35.82,30.15,33.78,40.95,64,10000,6.91
Tūkrah,LY,88834,1648789803,32.5341,20.5791,84,broken clouds,64.0,63.16,64.0,64.0,65,10000,2.33
Inírida,CO,3671450,1648790130,3.8653,-67.9239,43,scattered clouds,74.19,75.25,74.19,74.19,84,10000,1.05
Andenes,NO,3163146,1648790131,69.3143,16.1194,40,scattered clouds,22.98,11.7,22.98,26.92,80,10000,11.5
Solana Beach,US,5396974,1648790134,32.9912,-117.2711,100,overcast clouds,56.84,56.35,53.94,60.13,88,10000,4.61
Faanui,PF,4034551,1648790135,-16.4833,-151.75,35,scattered clouds,82.22,86.18,82.22,82.22,67,10000,13.13
Qaryat Sulūq,LY,81604,1648790135,31.6682,20.2521,100,overcast clouds,65.82,64.54,65.82,65.82,52,10000,13.89
Sainte-Rose,GP,3578447,1648790135,16.3324,-61.6979,40,scattered clouds,73.44,74.37,72.18,73.44,83,10000,4.61
Mana,GF,3381041,1648790136,5.6592,-53.7767,97,overcast clouds,76.08,77.29,76.08,76.08,83,10000,7.38
Le Lorrain,MQ,3570427,1648790136,14.8329,-61.0567,93,overcast clouds,74.75,73.47,74.75,75.15,33,10000,19.48
Inhambane,MZ,1045114,1648790137,-23.865,35.3833,20,few clouds,76.98,78.8,76.98,76.98,94,10000,0.0
Saryozek,KZ,1519580,1648790137,44.3583,77.9753,7,clear sky,59.2,56.05,59.2,59.2,26,10000,7.25
Naryan-Mar,RU,523392,1648790137,67.6713,53.087,90,overcast clouds,13.01,1.35,13.01,13.01,93,10000,8.46
DeLand,US,4152890,1648790128,29.0283,-81.3031,100,moderate rain,68.76,69.71,67.89,69.94,93,10000,10.36
Lata,PT,2738381,1648790138,40.1629,-8.3327,38,scattered clouds,42.75,42.75,42.75,42.75,98,10000,1.54
Tsumeb,NA,3352593,1648790138,-19.2333,17.7167,36,scattered clouds,64.62,64.96,64.62,64.62,89,10000,7.05
Oistins,BB,3373652,1648790139,13.0667,-59.5333,75,broken clouds,77.09,78.17,77.09,77.09,78,10000,20.71
Lagoa,PT,3372964,1648789848,39.05,-27.9833,100,overcast clouds,60.22,60.31,60.22,60.22,93,10000,25.39
Port Hueneme,US,5384339,1648790139,34.1478,-119.1951,0,mist,54.82,54.23,52.92,60.46,90,9656,3.44
Xingyi,CN,1787599,1648790140,24.1877,102.817,100,overcast clouds,45.34,41.83,45.34,45.34,88,10000,6.51
Opuwo,NA,3354077,1648790140,-18.0607,13.84,100,overcast clouds,69.12,69.21,69.12,69.12,74,10000,5.21
Koulikoro,ML,2454532,1648790140,14.0,-7.75,98,overcast clouds,79.09,79.09,79.09,79.09,10,10000,8.19
Shubarshi,KZ,608270,1648790141,48.5872,57.1869,1,clear sky,37.74,33.78,37.74,37.74,86,10000,5.06
Pisco,PE,3932145,1648790141,-13.7,-76.2167,0,clear sky,64.45,64.45,63.01,64.45,82,10000,10.36
Umm Kaddadah,SD,364933,1648790141,13.6017,26.6876,0,clear sky,75.38,73.18,75.38,75.38,12,10000,14.61
Hingoli,IN,1270072,1648790142,19.7167,77.15,3,clear sky,96.96,91.96,96.96,96.96,10,10000,8.28
Bubaque,GW,2374583,1648790142,11.2833,-15.8333,68,broken clouds,74.89,75.51,74.89,74.89,73,10000,9.1
Carauari,BR,3664659,1648790143,-4.8828,-66.8958,85,overcast clouds,72.34,73.92,72.34,72.34,99,9319,2.15
Kaa-Khem,RU,1505187,1648790143,51.6833,94.7333,99,overcast clouds,27.93,27.93,27.93,27.93,77,10000,1.1
Port Hardy,CA,6111862,1648790119,50.6996,-127.4199,100,overcast clouds,41.18,39.22,41.18,42.8,100,10000,3.44
Iqaluit,CA,5983720,1648790143,63.7506,-68.5145,100,light snow,24.53,16.56,24.53,24.53,93,10000,6.91
Hearst,CA,5973108,1648790144,49.6835,-83.6665,100,overcast clouds,19.65,7.68,19.65,19.65,93,717,11.23
Sitka,US,5557293,1648790144,57.0531,-135.33,100,overcast clouds,42.69,35.29,42.69,42.69,65,10000,14.97
Vila Velha,BR,3445026,1648790145,-20.3297,-40.2925,0,clear sky,76.95,78.62,76.95,76.95,91,10000,2.3
Pringsewu,ID,1630639,1648790145,-5.3582,104.9744,99,overcast clouds,87.6,95.67,87.6,87.6,63,10000,2.08
Evensk,RU,2125693,1648790145,61.95,159.2333,28,scattered clouds,18.0,7.93,18.0,18.0,73,10000,7.83
Olafsvik,IS,3414079,1648790146,64.8945,-23.7142,100,overcast clouds,39.13,33.75,39.13,39.13,80,10000,7.58
Kalmunai,LK,1242110,1648790146,7.4167,81.8167,28,scattered clouds,85.93,93.24,85.93,85.93,66,10000,8.95
Bethanien,NA,3358416,1648790146,-26.502,17.1583,0,clear sky,62.47,61.05,62.47,62.47,56,10000,1.77
Taoudenni,ML,2450173,1648790147,22.6783,-3.9836,100,overcast clouds,74.25,71.94,74.25,74.25,12,10000,7.56
Tuatapere,NZ,2180815,1648790147,-46.1333,167.6833,43,scattered clouds,57.79,56.05,57.79,57.79,59,10000,5.1
Roald,NO,3141667,1648790148,62.5833,6.1333,75,light snow,28.36,24.57,22.12,31.75,100,10000,3.44
Panama City,PA,3703443,1648789890,8.9936,-79.5197,20,few clouds,79.05,79.05,76.8,80.13,77,10000,4.61
Cockburn Town,TC,3576994,1648789822,21.4612,-71.1419,3,clear sky,77.02,78.22,77.02,77.02,81,10000,25.55
Kamiiso,JP,2129766,1648790148,41.8167,140.65,75,broken clouds,39.58,30.33,39.58,39.58,41,10000,18.41
Kalāleh,IR,129512,1648790149,37.3807,55.4916,0,clear sky,64.0,63.3,61.16,64.0,68,10000,0.0
Kalisz,PL,3096880,1648790149,51.7611,18.091,100,overcast clouds,32.7,21.72,32.7,32.7,57,10000,17.29
Yārāda,IN,1252783,1648790149,17.65,83.2667,40,haze,91.72,100.8,91.72,91.72,55,5000,12.66
Fukuechō,JP,1863997,1648790150,32.6881,128.8419,75,broken clouds,57.56,55.42,57.56,57.56,51,10000,18.41
Peterhead,GB,2640351,1648790150,57.5058,-1.7981,43,light snow,32.68,22.3,32.67,34.2,74,10000,15.48
St. Pete Beach,US,4171522,1648790151,27.7253,-82.7412,100,overcast clouds,75.6,76.39,71.01,77.13,75,10000,11.5
Berbera,SO,64435,1648790151,10.4396,45.0143,2,clear sky,80.19,83.52,80.19,80.19,72,10000,5.66
Vuktyl,RU,470905,1648790152,63.8567,57.3094,98,light snow,21.06,11.44,21.06,21.06,92,242,8.1
Vanavara,RU,2013727,1648790152,60.34,102.2797,100,overcast clouds,28.35,20.52,28.35,28.35,87,1268,7.81
Saint Anthony,US,5044290,1648790152,45.0205,-93.218,0,clear sky,25.95,21.81,22.87,29.89,77,10000,3.44
Georgiyevskoye,RU,561593,1648790153,58.731,45.024,66,broken clouds,23.79,23.79,23.79,23.79,83,10000,2.91
Morros,BR,3394372,1648790153,-9.4467,-46.3003,69,broken clouds,70.52,71.4,70.52,70.52,88,10000,4.5
Gari,RU,1506676,1648790154,59.4307,62.3497,100,overcast clouds,23.4,16.83,23.4,23.4,83,10000,5.14
Pecos,US,5528182,1648790154,31.4229,-103.4932,0,clear sky,56.08,52.38,55.49,60.3,21,10000,4.61
Khovd,MN,1516048,1648790154,48.0056,91.6419,9,clear sky,38.97,35.62,38.97,38.97,21,10000,4.56
Tanout,NE,2439155,1648790158,14.9709,8.8879,5,clear sky,71.35,68.41,71.35,71.35,5,10000,8.84
Būndi,IN,1275103,1648790158,25.4417,75.6417,0,clear sky,95.04,90.16,95.04,95.04,7,10000,5.3
Kieta,PG,2094027,1648790159,-6.2167,155.6333,100,heavy intensity rain,79.14,79.14,79.14,79.14,86,4068,1.1
Kuril'sk,RU,2123979,1648790159,45.2333,147.8833,100,overcast clouds,28.53,20.46,28.53,28.53,59,10000,8.23
Grand Baie,MU,934482,1648790160,-20.0182,57.5802,61,light rain,77.45,78.84,77.45,77.47,84,10000,7.0
Ilulissat,GL,3423146,1648790160,69.2167,-51.1,40,mist,15.82,10.24,15.82,15.82,86,3600,3.44
Nagato,JP,1899102,1648790160,34.3833,131.2,100,overcast clouds,50.67,47.79,50.67,50.67,50,10000,20.96
Cosalá,MX,4012707,1648790161,24.4125,-106.6908,86,overcast clouds,63.43,61.63,63.43,63.43,46,10000,2.3
Wawa,NG,2319078,1648790161,9.9022,4.4192,87,overcast clouds,81.54,84.65,81.54,81.54,65,10000,6.4
Mokhsogollokh,RU,2019867,1648790162,61.4681,128.9203,99,overcast clouds,28.17,22.96,28.17,28.17,83,10000,4.61
Taltal,CL,3870243,1648789980,-25.4,-70.4833,0,clear sky,62.83,62.49,62.83,62.83,78,10000,1.12
Kargil,IN,1267776,1648790162,34.5667,76.1,3,clear sky,28.24,28.24,28.24,28.24,54,10000,1.88
Alindao,CF,240999,1648790163,5.0267,21.2088,51,broken clouds,78.04,78.28,78.04,78.04,58,10000,1.7
Finnsnes,NO,3157549,1648790163,69.2296,17.9811,100,light snow,23.61,16.75,23.61,23.61,93,1677,5.46
Lircay,PE,3928317,1648790163,-12.9896,-74.7205,100,overcast clouds,46.96,45.99,46.96,46.96,92,10000,3.27
Tucuruí,BR,3385935,1648790164,-3.7661,-49.6725,100,overcast clouds,72.12,73.54,72.12,72.12,96,10000,1.61
Pokhara,NP,1282898,1648789991,28.2333,83.9833,36,scattered clouds,83.44,83.21,83.44,83.44,43,10000,6.85
Dudinka,RU,1507116,1648790164,69.4058,86.1778,100,overcast clouds,13.62,1.02,13.62,13.62,93,10000,10.18
Kurumkan,RU,2021188,1648790165,54.3,110.3,99,overcast clouds,31.06,27.14,31.06,31.06,93,3535,3.87
Ertil',RU,563420,1648790165,51.8406,40.8056,100,light rain,39.63,33.69,39.63,39.63,96,10000,8.9
Richards Bay,ZA,962367,1648789800,-28.783,32.0377,1,clear sky,70.07,70.83,70.07,70.07,86,10000,4.43
Nishihara,JP,1855342,1648790166,26.1842,127.7558,100,overcast clouds,71.1,70.95,68.68,72.68,65,10000,20.71
Bontang,ID,1648186,1648790166,0.1333,117.5,55,broken clouds,82.24,88.59,82.24,82.24,77,10000,7.45
Caraballeda,VE,3646767,1648790166,10.6112,-66.8522,40,scattered clouds,78.37,79.61,75.27,78.37,79,10000,0.0
Umluj,SA,100926,1648790167,25.0213,37.2685,92,overcast clouds,77.0,77.13,77.0,77.0,58,10000,5.57
Erzin,TR,296852,1648790167,36.9559,36.2,77,broken clouds,63.18,61.88,63.18,63.18,57,10000,4.92
Hofn,IS,2630299,1648790168,64.2539,-15.2082,100,overcast clouds,39.42,36.01,39.42,39.42,64,10000,4.72
Vermillion,US,5232592,1648790168,42.7794,-96.9292,35,scattered clouds,27.64,23.25,25.81,30.7,64,10000,3.83
Hermiston,US,5731070,1648790158,45.8404,-119.2895,0,clear sky,44.58,39.18,39.24,50.65,62,10000,10.36
Corrales,US,5463237,1648790035,35.2378,-106.6067,82,broken clouds,52.18,49.53,46.26,54.27,52,10000,18.01
Vung Tau,VN,1562414,1648790169,10.346,107.0843,46,scattered clouds,83.73,90.21,83.73,83.73,71,10000,13.71
Severnyy,RU,496358,1648790169,50.677,36.5532,75,broken clouds,48.24,45.19,48.24,48.24,76,10000,6.71
Meulaboh,ID,1214488,1648789827,4.1363,96.1285,70,broken clouds,84.69,90.59,84.69,84.69,66,10000,3.83
Maumere,ID,1635815,1648790170,-8.6199,122.2111,6,clear sky,85.03,91.65,85.03,85.03,67,10000,3.78
Cotonou,BJ,2394819,1648790170,6.3654,2.4183,72,broken clouds,81.81,89.31,81.81,81.81,84,10000,11.1
Corrientes,AR,3435217,1648790170,-27.4806,-58.8341,4,clear sky,55.29,54.09,55.29,55.29,76,10000,5.73
Östersund,SE,2685750,1648790171,63.1792,14.6357,0,clear sky,14.45,8.67,13.6,14.45,92,10000,3.44
Iwanai,JP,2129868,1648790171,42.9744,140.5089,97,overcast clouds,36.05,27.12,36.05,36.05,56,10000,14.0
Nizhnevartovsk,RU,1497543,1648790172,60.9344,76.5531,0,clear sky,24.82,15.44,24.03,24.82,54,10000,8.99
Heinola,FI,658288,1648790172,61.2056,26.0381,72,broken clouds,19.0,19.0,19.0,19.0,96,10000,2.48
Ubari,LY,2219235,1648790172,26.5921,12.7805,98,overcast clouds,65.73,63.14,65.73,65.73,24,10000,7.96
Boende,CD,218680,1648789808,-0.2167,20.8667,90,overcast clouds,72.66,73.15,72.66,72.66,75,10000,2.62
Morant Bay,JM,3489440,1648790173,17.8815,-76.4093,21,few clouds,73.71,74.68,73.71,73.71,83,10000,10.83
Talara,PE,3691582,1648790173,-4.5772,-81.2719,69,broken clouds,73.22,73.96,73.22,73.22,79,10000,13.02
Half Moon Bay,US,5354943,1648790120,37.4636,-122.4286,0,clear sky,49.86,46.56,46.85,55.35,81,10000,8.05
Comodoro Rivadavia,AR,3860443,1648789965,-45.8667,-67.5,0,clear sky,57.06,55.0,57.06,57.06,54,10000,8.05
Staroaleyskoye,RU,1491006,1648790174,51.0061,82.0,100,overcast clouds,35.89,31.64,35.89,35.89,87,10000,5.01
Onega,RU,515246,1648790174,63.9061,38.1404,89,overcast clouds,11.62,4.41,11.62,11.62,97,10000,4.09
Palestrina,IT,6536957,1648790175,41.8355,12.889,100,overcast clouds,48.04,47.46,46.56,51.93,96,10000,3.0
Aranos,NA,3358666,1648790175,-24.1333,19.1167,2,clear sky,69.22,69.19,69.22,69.22,71,10000,7.02
Arinos,BR,3471522,1648790176,-15.9169,-46.1056,17,few clouds,69.08,68.27,69.08,69.08,55,10000,1.36
Charters Towers,AU,2171722,1648790176,-20.1,146.2667,2,clear sky,92.5,89.31,92.5,92.5,23,10000,0.94
Dali,CN,1814093,1648790177,25.7,100.1833,94,overcast clouds,58.82,58.12,58.82,58.82,79,10000,5.12
Lieksa,FI,648090,1648790180,63.3167,30.0167,25,scattered clouds,9.14,9.14,9.14,9.14,94,10000,0.36
Altay,CN,1529651,1648790181,47.8667,88.1167,23,few clouds,43.47,41.67,43.47,43.47,58,10000,3.62
‘Ewa Beach,US,5855051,1648790181,21.3156,-158.0072,40,scattered clouds,74.05,74.59,70.59,75.15,73,10000,10.36
Maceió,BR,3395981,1648789986,-9.6658,-35.7353,75,broken clouds,74.64,76.23,74.64,74.64,94,10000,2.3
Diffa,NE,2445704,1648790182,13.3154,12.6113,3,clear sky,74.8,72.32,74.8,74.8,7,10000,9.57
Lagunas,PE,3695844,1648790182,-5.2269,-75.6753,100,overcast clouds,73.22,74.89,73.22,73.22,99,10000,4.43
Tual,ID,1623197,1648790182,-5.6667,132.75,16,few clouds,82.81,87.76,82.81,82.81,69,10000,6.89
Doha,QA,290030,1648790117,25.2867,51.5333,0,clear sky,79.83,79.83,73.71,80.58,25,10000,4.61
Shuyskoye,RU,493201,1648790183,59.3736,41.0305,39,scattered clouds,21.7,21.7,21.7,21.7,87,10000,2.75
Esperance,AU,2071860,1648789753,-33.8667,121.9,24,few clouds,77.22,76.98,77.22,77.22,50,10000,12.86
Iralaya,HN,3608828,1648790183,15.0,-83.2333,6,clear sky,78.87,78.87,78.87,78.87,81,10000,11.5
San Quintín,MX,3984997,1648790184,30.4833,-115.95,75,broken clouds,58.51,57.36,58.51,58.51,70,10000,11.45
Kavaratti,IN,1267390,1648790184,10.5669,72.642,90,overcast clouds,83.34,89.96,83.34,83.34,73,10000,6.67
Prachatice,CZ,3067713,1648790185,49.0129,13.9975,100,light snow,33.37,28.63,30.76,37.18,99,22,5.06
Verkhneyarkeyevo,RU,475438,1648790185,55.4505,54.3145,100,light snow,29.3,21.13,29.3,29.3,97,131,8.7
Itarema,BR,3393692,1648790185,-2.9248,-39.9167,99,overcast clouds,75.78,77.2,75.78,75.78,88,10000,5.88
Copiapó,CL,3893656,1648790186,-27.3667,-70.3333,0,clear sky,63.43,62.56,63.43,63.43,66,10000,0.51
Aguachica,CO,3690465,1648790186,8.3084,-73.6166,54,broken clouds,76.69,77.97,76.69,76.69,83,10000,2.71
Baruun-Urt,MN,2032614,1648790187,46.6806,113.2792,81,broken clouds,43.88,39.79,43.88,43.88,20,10000,7.05
Annau,TM,162199,1648790187,37.8876,58.516,40,scattered clouds,65.7,63.81,65.7,65.7,39,10000,4.61
Ajdabiya,LY,89113,1648790188,30.7554,20.2263,100,overcast clouds,66.49,65.52,66.49,66.49,57,10000,14.63
Marfino,RU,529368,1648790188,55.7028,37.3822,100,overcast clouds,31.91,23.04,30.16,32.34,80,6000,11.18
High Level,CA,5975004,1648790188,58.5169,-117.136,100,light snow,19.51,8.02,19.51,19.51,73,10000,10.36
Mitsamiouli,KM,921786,1648790189,-11.3847,43.2844,71,broken clouds,81.64,85.98,81.64,81.64,71,10000,0.98
Bograd,RU,1509847,1648790189,54.2344,90.8328,100,overcast clouds,44.56,40.5,44.56,44.56,60,10000,7.27
Tonekābon,IR,112656,1648790189,36.8163,50.8738,0,clear sky,58.95,57.54,58.95,58.95,64,10000,3.49
Eskilstuna,SE,2715953,1648790190,59.3666,16.5077,40,scattered clouds,25.86,25.86,20.98,25.86,93,10000,1.99
Basco,PH,1726449,1648790191,20.4487,121.9702,63,broken clouds,76.78,78.01,76.78,76.78,82,10000,32.3
Cap Malheureux,MU,934649,1648790191,-19.9842,57.6142,57,light rain,77.47,78.85,77.47,77.47,84,10000,7.0
Yuli,NG,2317982,1648790191,9.6989,10.2744,67,broken clouds,75.72,73.51,75.72,75.72,11,10000,3.71
Isangel,VU,2136825,1648790192,-19.55,169.2667,87,overcast clouds,85.01,93.88,85.01,85.01,73,10000,4.74
Xai-Xai,MZ,1024552,1648790192,-25.0519,33.6442,10,clear sky,73.92,75.2,73.92,73.92,89,10000,5.23
Kuala Sungai Baru,MY,1759513,1648790192,2.3594,102.0353,21,few clouds,93.24,105.84,93.24,93.24,65,10000,7.92
Srednekolymsk,RU,2121025,1648790193,67.45,153.6833,100,overcast clouds,5.04,-4.52,5.04,5.04,80,10000,4.94
Boda,CF,2388614,1648790193,4.3189,17.4695,85,overcast clouds,74.97,75.04,74.97,74.97,61,10000,3.15
Pilot Butte,CA,6104745,1648790194,50.4668,-104.4178,100,overcast clouds,35.19,25.3,33.53,35.65,77,10000,16.11
Abu Samrah,SY,172515,1648790194,35.3029,37.1841,39,scattered clouds,61.74,59.54,61.74,61.74,41,10000,5.68
Nur-Sultan,KZ,1526273,1648790033,51.1801,71.446,0,clear sky,35.55,31.71,35.55,35.55,80,10000,4.47
João Pessoa,BR,3397277,1648790195,-7.115,-34.8631,20,few clouds,75.43,77.09,75.43,75.43,94,10000,4.61
Avera,US,4231997,1648789834,33.194,-82.5271,31,scattered clouds,63.91,62.96,62.65,63.91,63,10000,10.98
Arrondissement de Saint-Denis,FR,2980915,1648790195,48.9167,2.3333,100,overcast clouds,35.26,24.37,32.99,36.16,85,10000,19.57
Poltavka,RU,1494500,1648790196,54.3663,71.7632,100,overcast clouds,32.88,28.72,32.88,32.88,100,466,4.36
Amalāpuram,IN,1278935,1648790196,16.5833,82.0167,69,broken clouds,93.02,100.13,93.02,93.02,49,10000,7.92
Awjilah,LY,88533,1648790196,29.1081,21.2869,100,overcast clouds,74.48,72.19,74.48,74.48,12,10000,14.29
Kachīry,KZ,1523662,1648790197,53.0675,76.1036,100,overcast clouds,35.13,29.1,35.13,35.13,88,10000,7.27
Ziarat,PK,1162094,1648790197,30.3823,67.7282,0,clear sky,63.75,60.01,63.75,63.75,4,10000,4.18
Aklavik,CA,5882953,1648790197,68.2191,-135.0107,51,broken clouds,-28.07,-39.33,-28.07,-28.07,100,10000,3.24
Fort Nelson,CA,5955902,1648790198,58.8053,-122.7002,75,broken clouds,17.19,4.59,17.19,17.19,67,10000,11.5
Arlington,US,4671240,1648790101,32.7357,-97.1081,0,clear sky,52.32,49.93,45.84,57.33,57,10000,3.44
Lebowakgomo,ZA,984087,1648790198,-24.2,29.5,0,clear sky,54.05,52.12,54.05,54.5,63,10000,3.53
Zamora,EC,3649959,1648790038,-4.0692,-78.9567,100,light rain,67.62,68.74,67.62,67.62,99,10000,1.16
Polunochnoye,RU,1494482,1648790199,60.8697,60.4153,5,clear sky,25.27,17.49,25.27,25.27,76,10000,6.87
Peebles,GB,2640526,1648790199,55.6519,-3.1888,23,few clouds,29.14,25.61,24.42,34.12,85,10000,3.33
Yazd,IR,111822,1648790200,31.8972,54.3675,0,clear sky,62.71,60.37,62.71,62.71,36,10000,4.61
Pangnirtung,CA,6096551,1648789820,66.1451,-65.7125,100,overcast clouds,17.1,10.98,17.1,17.1,86,10000,3.91
Conceição do Araguaia,BR,3401845,1648790200,-8.2578,-49.2647,80,broken clouds,71.47,72.88,71.47,71.47,97,10000,3.02
Baykit,RU,1510689,1648790201,61.67,96.37,100,light snow,24.89,20.66,24.89,24.89,91,258,3.4
Tapiramutá,BR,3446866,1648790204,-11.8472,-40.7914,7,clear sky,59.85,59.9,59.85,59.85,93,10000,1.05
Boyolangu,ID,1648082,1648790204,-8.1181,111.8935,14,few clouds,86.25,93.54,86.25,86.25,65,10000,5.1
Sehithwa,BW,933109,1648790205,-20.4667,22.7167,30,scattered clouds,69.17,68.7,69.17,69.17,62,10000,6.15
Kamaishi,JP,2112444,1648790205,39.2667,141.8833,100,overcast clouds,42.62,38.26,42.62,42.62,47,10000,7.05
Biak,ID,1637001,1648789797,-0.9131,122.8766,59,broken clouds,84.99,90.19,84.99,84.99,63,10000,0.81
Bhubaneswar,IN,1275817,1648790206,20.2333,85.8333,75,haze,86.22,98.82,86.22,86.22,79,4500,16.11
Norrtälje,SE,2688250,1648790206,59.758,18.705,45,scattered clouds,32.02,27.61,24.98,32.02,87,10000,4.47
Otradnyy,RU,513883,1648790206,53.376,51.3452,100,overcast clouds,36.32,29.14,36.32,36.32,100,34,9.89
San Luis,AR,3837056,1648790207,-33.295,-66.3356,0,clear sky,49.71,46.22,49.71,49.71,35,10000,8.5
Berdigestyakh,RU,2026861,1648790207,62.0989,126.6992,100,light snow,29.66,22.17,29.66,29.66,95,206,7.74
Cuamba,MZ,1047660,1648790208,-14.8031,36.5372,19,few clouds,68.49,69.55,68.49,68.49,96,10000,1.48
General Pico,AR,3855075,1648790208,-35.6566,-63.7568,0,clear sky,46.67,42.28,46.67,46.67,45,10000,9.04
Chernushka,RU,568608,1648790208,56.5072,56.0766,100,overcast clouds,29.17,20.62,29.17,29.17,92,2261,9.28
Markova,UA,701802,1648790209,48.6758,24.4138,100,overcast clouds,48.34,47.19,48.34,48.34,91,10000,3.69
Zhuhai,CN,1790437,1648790209,22.2769,113.5678,40,scattered clouds,69.66,69.98,68.86,71.38,78,10000,13.8
Izumo,JP,1861084,1648790210,35.3667,132.7667,40,scattered clouds,53.49,50.18,51.75,53.49,35,10000,17.27
Conway,US,4106458,1648790122,35.0887,-92.4421,100,overcast clouds,39.2,35.85,34.72,42.6,71,10000,4.61
Verkh-Usugli,RU,2013459,1648790210,52.7,115.1667,24,few clouds,38.07,30.99,38.07,38.07,43,10000,10.58
Jieshi,CN,1805857,1648790211,22.8134,115.8257,100,overcast clouds,63.59,63.18,63.59,63.59,75,10000,16.73
Moroto,UG,229112,1648790211,2.5345,34.6666,5,clear sky,73.15,72.52,73.15,73.15,50,10000,7.34
Nelson Bay,AU,2155562,1648790212,-32.7167,152.15,83,light rain,64.15,64.54,64.09,66.99,91,7478,27.6
Young,UY,3439525,1648790212,-32.6833,-57.6333,2,clear sky,46.17,43.5,46.17,46.17,73,10000,5.32
Kosh-Agach,RU,1502422,1648790212,50.0,88.6667,87,overcast clouds,25.84,25.84,25.84,25.84,35,10000,1.83
Mount Forest,CA,6080782,1648790213,43.9795,-80.7221,100,overcast clouds,31.6,25.09,29.97,31.73,80,4490,6.91
Tshikapa,CD,204953,1648790213,-6.4167,20.8,80,light rain,70.02,71.22,70.02,70.02,96,10000,1.45
Huarmey,PE,3939168,1648789763,-10.0681,-78.1522,100,overcast clouds,70.25,70.97,70.25,70.25,85,10000,7.92
Port Blair,IN,1259385,1648790214,11.6667,92.75,20,few clouds,87.84,99.77,87.84,87.84,70,6000,9.22
Puerto Escondido,MX,3520994,1648790214,15.85,-97.0667,47,scattered clouds,75.99,76.3,75.99,75.99,64,10000,4.41
Redmond,US,5808079,1648790169,47.674,-122.1215,82,broken clouds,45.77,44.76,42.33,49.19,78,10000,3.13
Beringovskiy,RU,2126710,1648790215,63.05,179.3167,100,snow,26.35,13.75,26.35,26.35,96,142,21.85
Måløy,NO,3146487,1648790215,61.9353,5.1136,43,scattered clouds,29.93,21.33,29.93,29.93,68,10000,9.69
Korsør,DK,2618361,1648790215,55.3299,11.1386,100,overcast clouds,30.97,20.34,30.97,30.97,66,10000,14.85
Varhaug,NO,3132644,1648790216,58.6147,5.6457,8,clear sky,29.62,25.23,24.35,32.85,45,10000,4.09
Batagay-Alyta,RU,2027042,1648790216,67.8006,130.4114,48,scattered clouds,8.55,-0.54,8.55,8.55,72,10000,5.06
Santa Helena de Goiás,BR,3450206,1648789949,-17.8136,-50.5969,26,scattered clouds,69.76,70.29,69.76,69.76,82,10000,5.99
Rawson,AR,3839307,1648790217,-43.3002,-65.1023,100,overcast clouds,60.35,58.48,60.35,60.35,51,10000,5.5
Lethem,GY,3379316,1648790217,3.3803,-59.7968,47,scattered clouds,77.18,77.47,77.18,77.18,61,10000,10.29
Ugoofaaru,MV,1337619,1648790218,5.6667,73.0,15,few clouds,83.48,89.67,83.48,83.48,71,10000,4.27
Fernie,CA,5952370,1648790218,49.5,-115.0687,25,scattered clouds,39.4,39.4,39.29,39.4,88,10000,1.19
Basi,IN,1276767,1648790218,26.8333,76.0333,0,clear sky,93.54,88.92,93.54,93.54,9,10000,1.43
Bandundu Province,CD,2317397,1648790219,-3.3167,17.3667,89,overcast clouds,72.37,73.63,72.37,72.37,92,10000,3.0
Emerald,AU,2167426,1648790219,-23.5333,148.1667,5,clear sky,91.35,89.29,91.35,91.35,29,10000,3.65
Mareeba,AU,2158767,1648790219,-17.0,145.4333,2,clear sky,92.44,93.67,81.32,92.66,38,10000,2.44
Kutum,SD,371745,1648790220,14.2,24.6667,0,clear sky,68.94,66.04,68.94,68.94,11,10000,6.15
Impfondo,CG,2259655,1648790220,1.6381,18.0667,31,scattered clouds,72.93,73.49,72.93,72.93,76,10000,2.82
Hualmay,PE,3939761,1648790221,-11.0964,-77.6139,98,overcast clouds,68.47,69.15,68.47,68.47,88,10000,7.54
Krasnofarfornyy,RU,542400,1648790221,59.1364,31.8502,23,few clouds,24.04,24.04,24.04,24.04,84,10000,2.26
Pudozh,RU,504269,1648790221,61.8099,36.5345,66,broken clouds,13.32,13.32,13.32,13.32,93,10000,1.1
Shiyan,CN,1794903,1648790222,32.6475,110.7781,100,moderate rain,65.41,63.39,65.41,65.41,37,10000,5.5
Antalaha,MG,1071296,1648790223,-14.9003,50.2788,90,light rain,76.33,77.58,76.33,76.33,83,10000,7.92
Jalingo,NG,2336589,1648790223,8.8833,11.3667,90,overcast clouds,74.95,72.81,74.95,74.95,14,10000,3.53
Kampot,KH,1831112,1648789752,10.6167,104.1833,85,overcast clouds,86.05,93.11,86.05,86.05,65,10000,4.88
La Rioja,ES,3336897,1648790223,42.25,-2.5,98,light snow,29.98,20.17,29.98,29.98,90,7596,12.17
Dunedin,NZ,2191562,1648790224,-45.8742,170.5036,83,broken clouds,53.8,51.69,53.8,53.8,60,10000,8.01
Kodīnar,IN,1266397,1648790224,20.7903,70.7031,2,clear sky,86.99,86.4,86.99,86.99,39,10000,4.12
Da Lat,VN,1584071,1648790228,11.9465,108.4419,96,overcast clouds,72.18,72.19,72.18,72.18,66,10000,6.11
Broome,US,5110365,1648790228,42.2506,-75.833,100,overcast clouds,44.71,39.79,41.77,48.2,76,10000,9.22
Neepawa,CA,6086673,1648790228,50.2289,-99.4664,99,overcast clouds,30.6,23.83,30.6,30.6,85,10000,6.98
Pochutla,MX,3517970,1648790229,15.7432,-96.4661,76,broken clouds,73.81,73.81,73.81,73.81,62,10000,3.33
Srīmushnam,IN,1255640,1648790229,11.4,79.4167,64,broken clouds,92.26,96.48,92.26,92.26,45,10000,9.86
Gympie,AU,2164129,1648790230,-26.1898,152.665,42,scattered clouds,75.18,74.89,75.18,75.18,53,10000,4.99
Fonte Boa,BR,6319315,1648790230,-2.4959,-66.2662,92,overcast clouds,72.73,74.32,72.73,72.73,98,10000,1.95
San Buenaventura,MX,3987500,1648790231,27.0833,-101.5333,59,broken clouds,66.99,64.76,66.99,66.99,29,10000,6.29
Kamenka,RU,553766,1648790231,51.3223,42.7678,100,light rain,45.66,40.28,45.66,45.66,82,10000,11.07
Saint-Pierre,RE,935214,1648790231,-21.3393,55.4781,0,clear sky,80.35,83.25,74.17,81.28,68,10000,27.63
Guangming,CN,2034497,1648790232,45.3333,122.7833,37,scattered clouds,48.97,45.73,48.97,48.97,15,10000,7.49
Pagudpud,PH,1696482,1648790232,18.5616,120.7868,23,few clouds,85.5,92.28,85.5,85.5,66,10000,19.53
Amapá,BR,3407762,1648789756,1.0,-52.0,100,overcast clouds,70.52,71.98,70.52,70.52,100,10000,1.5
Haifa,IL,294801,1648790233,32.8156,34.9892,0,clear sky,63.54,61.29,63.54,63.54,36,10000,4.61
Tura,IN,1254046,1648790233,25.5198,90.2201,46,scattered clouds,84.24,86.36,84.24,84.24,54,10000,5.21
Tevaitoa,PF,4033375,1648790233,-16.7833,-151.5,28,scattered clouds,82.22,86.63,82.22,82.22,69,10000,12.93
Pasni,PK,1168312,1648790234,25.2631,63.471,0,clear sky,84.49,82.2,84.49,84.49,28,10000,9.24
Bentiu,SS,377472,1648790234,9.2333,29.8333,3,clear sky,85.78,82.65,85.78,85.78,20,10000,1.07
Turukhansk,RU,1488903,1648790235,65.8167,87.9833,100,overcast clouds,18.32,5.72,18.32,18.32,85,5319,17.87
Sobolevo,RU,525426,1648790235,54.4299,31.8996,100,overcast clouds,28.9,18.63,28.9,28.9,95,3462,12.57
Henties Bay,NA,3356832,1648790235,-22.116,14.2845,0,clear sky,61.48,61.52,61.48,61.48,89,10000,7.36
Kumul,CN,1529484,1648790236,42.8,93.45,0,clear sky,55.99,51.91,55.99,55.99,13,10000,2.62
San Borja,BO,3905792,1648790236,-14.8167,-66.85,100,overcast clouds,58.96,58.51,58.96,58.96,84,10000,5.3
Eséka,CM,2231881,1648790237,3.65,10.7667,100,overcast clouds,75.4,77.2,75.4,75.4,97,10000,0.83
Graham,US,5795906,1648790237,47.0529,-122.2943,100,overcast clouds,44.56,38.75,40.62,47.37,79,10000,11.5
Praia,CV,3374333,1648790237,14.9215,-23.5087,0,clear sky,68.54,68.72,68.54,68.54,77,10000,11.5
Santa Cruz de la Sierra,BO,3904906,1648790238,-17.8,-63.1667,75,broken clouds,62.06,59.94,62.06,62.06,42,10000,20.71
Contamana,PE,3697838,1648790238,-7.3333,-75.0167,100,overcast clouds,72.9,74.21,72.9,72.9,92,10000,2.62
Yeppoon,AU,2142316,1648790238,-23.1333,150.7333,22,few clouds,83.98,88.32,83.98,83.98,63,10000,11.83
San Vicente,AR,3428068,1648790046,-26.6167,-54.1333,66,broken clouds,48.92,46.98,48.92,48.92,68,10000,4.97
Panji,ID,1632566,1648790239,-7.7253,114.0995,16,few clouds,86.58,95.13,86.58,86.58,67,10000,5.14
Skovorodino,RU,2016443,1648790239,53.9833,123.9167,18,few clouds,38.44,34.03,38.44,38.44,42,10000,5.82
La Plaine,DM,3575755,1648790240,15.3333,-61.25,97,overcast clouds,75.78,76.68,75.78,75.78,77,10000,20.15
Iskateley,RU,866062,1648790240,67.6803,53.1512,89,overcast clouds,12.9,1.29,12.9,12.9,93,10000,8.37
Kirakira,SB,2178753,1648790241,-10.4544,161.9205,100,light rain,80.8,86.72,80.8,80.8,84,10000,7.81
La Cruz,MX,4002745,1648790241,23.9167,-106.9,75,broken clouds,64.85,64.27,64.85,64.85,69,10000,2.17
Birobidzhan,RU,2026643,1648790241,48.8,132.95,13,few clouds,35.11,32.52,35.11,35.11,77,10000,3.24
Caluquembe,AO,3351024,1648790242,-13.7833,14.6833,100,light rain,59.18,59.31,59.18,59.18,96,10000,2.51
Tautira,PF,4033557,1648790242,-17.7333,-149.15,36,scattered clouds,81.72,86.97,81.72,81.72,75,10000,12.88
Alta Floresta,BR,6316343,1648790243,-9.8756,-56.0861,100,overcast clouds,70.79,72.23,70.79,70.79,99,10000,2.13
Port Hedland,AU,2063042,1648790243,-20.3167,118.5667,24,few clouds,95.05,98.04,95.05,95.05,38,10000,11.5
Alekseyevskaya,RU,582816,1648790244,50.2896,42.1845,100,overcast clouds,49.8,44.55,49.8,49.8,73,10000,14.34
Broken Hill,AU,2173911,1648790244,-31.95,141.4333,4,clear sky,71.56,69.98,71.56,71.56,33,10000,16.17
São Filipe,CV,3374210,1648790245,14.8961,-24.4956,60,broken clouds,70.5,70.74,70.5,70.5,74,10000,8.61
Hobyo,SO,57000,1648790245,5.3505,48.5268,34,scattered clouds,83.44,88.45,83.44,83.44,67,10000,14.32
Iracoubo,GF,3381428,1648790246,5.4802,-53.2011,98,overcast clouds,76.6,77.86,76.6,76.6,83,10000,8.19
Ca Mau,VN,1586443,1648790246,9.1769,105.15,80,broken clouds,88.52,96.28,88.52,88.52,60,6045,6.15
Mackay,AU,2159220,1648790247,-21.15,149.2,1,clear sky,83.68,87.51,83.68,83.68,62,10000,12.71
Dunhua,CN,2037534,1648790247,43.3725,128.2425,3,clear sky,42.51,35.64,42.51,42.51,24,10000,13.11
Acapulco de Juárez,MX,3533462,1648789648,16.8634,-99.8901,40,scattered clouds,75.02,75.88,75.02,75.02,78,8047,0.0
Sembakung,ID,1627877,1648790248,3.8167,117.25,84,broken clouds,85.89,98.49,85.89,85.89,79,10000,3.31
Tooele,US,5783695,1648790248,40.5308,-112.2983,0,clear sky,36.77,31.3,34.72,41.65,87,10000,6.91
Nioro,GM,2412408,1648790248,13.35,-15.75,32,scattered clouds,74.16,72.91,74.16,74.16,35,10000,4.61
Clovis,US,5338122,1648790249,36.8252,-119.7029,100,overcast clouds,59.49,58.6,53.2,64.29,74,10000,0.0
Sungai Raya,ID,1625908,1648790249,0.7,108.9,11,few clouds,90.12,97.25,90.12,90.12,55,10000,6.15
Tezu,IN,1254709,1648790250,27.9167,96.1667,99,overcast clouds,76.05,76.59,76.05,76.05,69,10000,3.22
Payakumbuh,ID,1631905,1648790253,-0.2202,100.6308,22,few clouds,92.86,92.79,92.86,92.86,34,10000,1.63
Kyaikkami,MM,1317402,1648790253,16.08,97.5675,32,scattered clouds,86.41,93.88,86.41,86.41,65,10000,4.07
Urusha,RU,2014078,1648790254,54.05,122.9,25,scattered clouds,37.98,33.82,37.98,37.98,40,10000,5.35
Capreol,CA,5959803,1648790254,46.706,-80.9225,100,overcast clouds,26.31,15.87,25.92,27.55,84,10000,11.5
Cervo,ES,3125287,1648790254,43.6702,-7.4101,99,overcast clouds,45.82,40.06,45.82,45.82,64,10000,12.35
Clearwater,US,4151316,1648789778,27.9659,-82.8001,100,overcast clouds,74.17,75.24,67.91,77.07,84,10000,14.97
Sayyan,YE,70979,1648790255,15.1718,44.3244,0,clear sky,57.09,53.4,57.09,57.09,19,10000,5.95
Goderich,CA,5962442,1648790255,43.7501,-81.7165,100,overcast clouds,34.11,27.37,32.92,34.92,80,10000,8.05
Lublin Voivodeship,PL,858785,1648790256,51.0,23.0,100,snow,31.5,20.23,30.38,31.59,98,160,17.07
Namatanai,PG,2090021,1648790256,-3.6667,152.4333,98,overcast clouds,84.45,92.17,84.45,84.45,72,10000,14.16
Shalakusha,RU,495983,1648790256,62.2247,40.2539,95,overcast clouds,10.72,10.72,10.72,10.72,96,7995,2.17
Jaciara,BR,3460355,1648790257,-15.9653,-54.9683,100,overcast clouds,62.55,62.73,62.55,62.55,90,10000,5.14
Suicheng,CN,1793899,1648790257,33.8963,117.9331,100,overcast clouds,55.56,52.27,55.56,55.56,31,10000,6.6
Prince Rupert,CA,6113406,1648790258,54.3161,-130.3201,100,light rain,42.89,33.64,42.49,42.89,75,10000,23.02
Zhongshu,CN,1784310,1648790258,24.5167,103.7667,100,overcast clouds,44.53,41.32,44.53,44.53,89,10000,5.73
Camacha,PT,2270385,1648790258,33.0833,-16.3333,75,broken clouds,56.62,56.12,56.62,56.62,88,10000,2.3
Moche,PE,3694725,1648790259,-8.1711,-79.0092,40,mist,66.38,66.85,66.38,66.38,88,4200,5.75
Bandarbeyla,SO,64814,1648790259,9.4942,50.8122,7,clear sky,81.59,86.29,81.59,81.59,73,10000,8.52
Muddebihāl,IN,1262669,1648790260,16.3333,76.1333,8,clear sky,95.07,90.32,95.07,95.07,11,10000,13.78
Buraidah,SA,107304,1648790260,26.326,43.975,9,clear sky,70.25,67.64,70.25,70.25,14,10000,11.21
Marawi,PH,1701054,1648790260,7.9986,124.2928,95,overcast clouds,77.41,78.66,77.41,77.41,81,7632,4.81
Khomutovka,RU,549617,1648790261,51.9207,34.5619,100,overcast clouds,38.64,31.62,38.64,38.64,98,215,10.78
Marsh Harbour,BS,3571913,1648790261,26.5412,-77.0636,21,few clouds,75.61,76.73,75.61,75.61,82,10000,18.3
Salym,RU,1493162,1648790261,60.0625,71.4789,73,broken clouds,24.01,15.73,24.01,24.01,82,10000,7.18
Qui Nhon,VN,1568574,1648790171,13.7667,109.2333,98,overcast clouds,80.04,84.6,80.04,80.04,82,10000,6.78
Keetmanshoop,NA,3356264,1648790262,-26.5833,18.1333,0,clear sky,59.92,58.77,59.92,59.92,67,10000,2.3
Lumeje,AO,876123,1648790262,-11.55,20.7833,91,overcast clouds,63.77,64.51,63.77,63.77,99,10000,4.36
Oranjestad,AW,3577154,1648790263,12.524,-70.027,20,few clouds,80.55,84.45,80.55,80.55,74,10000,18.41
Argayash,RU,1511428,1648790263,55.4888,60.8767,100,snow,28.09,21.02,27.7,28.09,97,845,6.69
Gibara,CU,3558315,1648790264,21.1097,-76.1317,16,few clouds,76.32,77.54,76.32,76.32,83,10000,14.74
Novikovo,RU,487928,1648790264,51.1537,37.8879,100,overcast clouds,45.7,40.35,45.7,45.7,90,10000,10.96
Brigantine,US,4500920,1648790264,39.4101,-74.3646,75,mist,55.08,54.84,50.02,61.2,97,9656,14.97
Pontianak,ID,1630789,1648790178,-0.0333,109.3333,75,broken clouds,90.99,103.35,90.99,91.38,62,10000,4.61
Glendive,US,5654391,1648790265,47.1053,-104.7125,40,scattered clouds,29.82,22.15,29.82,40.17,69,10000,8.05
Loudi,CN,1802238,1648790266,27.7344,111.9944,100,overcast clouds,54.45,53.2,54.45,54.45,77,10000,9.33
Croy,CH,2658182,1648790266,46.6946,6.4772,100,overcast clouds,36.93,31.42,32.85,41.13,94,2775,7.02
Najrān,SA,103630,1648790266,17.4924,44.1277,0,clear sky,65.05,61.92,65.05,65.05,14,10000,4.63
Lanxi,CN,1804442,1648790267,29.2195,119.477,100,light rain,48.0,48.0,48.0,48.0,75,10000,2.8
Innisfail,AU,2162683,1648790267,-17.5333,146.0333,1,clear sky,83.26,85.01,83.26,83.26,54,10000,6.73
Luján,AR,3430988,1648790268,-34.5703,-59.105,0,clear sky,43.63,43.63,42.03,50.95,92,10000,1.01
Verāval,IN,1253237,1648790268,20.9,70.3667,0,clear sky,84.02,85.15,84.02,84.02,50,10000,4.7
Ishigaki,JP,1861416,1648790268,24.3448,124.1572,75,broken clouds,64.53,64.81,64.53,64.53,88,10000,18.41
Mingoyo,TZ,877925,1648790269,-10.1,39.6333,96,overcast clouds,76.14,77.86,76.14,76.14,94,10000,2.75
Moindou,NC,2140466,1648790269,-21.6924,165.677,62,broken clouds,82.99,89.78,82.99,82.99,75,10000,5.79
Abashiri,JP,2130741,1648790270,44.0213,144.2697,75,broken clouds,35.89,29.55,35.89,35.89,64,10000,8.05
Dzilam González,MX,3529654,1648790270,21.2833,-88.9333,22,few clouds,78.13,79.07,78.13,78.13,73,10000,7.34
Kavieng,PG,2094342,1648790270,-2.5744,150.7967,83,broken clouds,83.98,90.77,83.98,83.98,71,10000,13.62
Colac,AU,2171069,1648790271,-38.3333,143.5833,14,few clouds,58.89,56.79,57.07,62.17,49,10000,14.32
Maragogi,BR,3395458,1648790271,-9.0122,-35.2225,100,overcast clouds,76.73,77.81,76.73,76.73,79,10000,1.79
Bagdarin,RU,2027244,1648790272,54.4333,113.6,100,overcast clouds,34.11,26.85,34.11,34.11,55,10000,8.99
Dawei,MM,1293625,1648790272,14.0833,98.2,85,overcast clouds,94.37,100.6,94.37,94.37,45,10000,1.81
Beloha,MG,1067565,1648790272,-25.1667,45.05,0,clear sky,74.48,74.82,74.48,74.48,68,10000,9.64
Tocopilla,CL,3869716,1648790273,-22.092,-70.1979,5,clear sky,65.19,64.94,65.19,65.19,75,10000,1.39
Sangar,RU,2017215,1648790273,63.9242,127.4739,97,overcast clouds,17.85,5.25,17.85,17.85,86,2534,13.13
Praia da Vitória,PT,3372760,1648790273,38.7333,-27.0667,75,broken clouds,61.05,61.0,61.05,61.75,88,10000,17.6
Valparaíso,CL,3868626,1648790277,-33.0393,-71.6273,0,clear sky,59.47,57.88,53.24,59.47,59,10000,3.44
Mananara,MG,1061412,1648790277,-16.1667,49.7667,100,heavy intensity rain,71.65,73.08,71.65,71.65,97,7499,4.32
Rocha,UY,3440777,1648790278,-34.4833,-54.3333,97,overcast clouds,55.49,53.89,55.49,55.49,67,10000,1.34
Gravelbourg,CA,5965462,1648790278,49.8834,-106.5512,98,overcast clouds,28.67,17.26,28.67,28.67,47,10000,15.19
Itaqui,BR,3460629,1648790278,-29.1253,-56.5531,0,clear sky,49.17,45.82,49.17,49.17,69,10000,7.85
Pingzhuang,CN,2035453,1648790279,42.0372,119.2889,4,clear sky,47.1,45.28,47.1,47.1,13,10000,4.32
Gushikawa,JP,1863495,1648790279,26.3544,127.8686,100,overcast clouds,69.19,68.9,68.63,72.63,66,10000,17.27
Mahibadhoo,MV,1337605,1648790279,3.7833,72.9667,2,clear sky,83.05,88.48,83.05,83.05,70,10000,4.88
Lakeway,US,4705041,1648790280,30.3638,-97.9796,0,clear sky,56.91,54.93,50.02,60.85,56,10000,5.75
Bayjī,IQ,97783,1648790280,34.9311,43.487,9,clear sky,71.85,69.96,71.85,71.85,26,10000,6.2
Badou,TG,2367660,1648790281,7.5833,0.6,68,broken clouds,73.78,75.09,73.78,73.78,90,10000,0.83
Santarém,BR,3389353,1648790281,-2.4431,-54.7083,40,light rain,75.33,77.25,75.33,75.33,100,10000,1.14
Arenápolis,BR,3471551,1648790282,-14.4503,-56.8461,100,overcast clouds,60.62,60.66,60.62,60.62,91,10000,4.92
Griffith,US,4920986,1648790060,41.5284,-87.4237,100,overcast clouds,33.8,27.72,32.95,35.53,89,8047,6.91
Villarrica,PY,3436714,1648790282,-25.75,-56.4333,67,broken clouds,56.05,54.09,56.05,56.05,58,10000,7.14
Sydney,AU,2147714,1648790261,-33.8679,151.2073,75,light rain,64.27,63.88,63.23,65.77,74,10000,32.21
Vila do Maio,CV,3374120,1648790171,15.1333,-23.2167,26,scattered clouds,68.79,69.31,68.79,68.79,84,10000,15.17
Rio Grande,BR,3451138,1648789611,-32.035,-52.0986,94,overcast clouds,51.94,49.98,51.94,51.94,67,10000,8.25
Seminole,US,4172445,1648790283,28.7086,-81.2081,100,thunderstorm with heavy rain,68.38,69.39,66.33,71.96,95,2012,3.44
Lakatoro,VU,2136697,1648790284,-16.0999,167.4164,99,overcast clouds,83.84,91.78,83.84,83.84,75,10000,1.92
Burhaniye,TR,320369,1648790284,39.5004,26.9727,40,scattered clouds,53.51,51.66,53.51,53.51,66,10000,5.75
Castleisland,IE,2965604,1648790284,52.2333,-9.4667,10,clear sky,32.31,32.31,32.31,32.31,86,10000,2.93
Nynäshamn,SE,2687636,1648790285,58.9034,17.9479,34,scattered clouds,27.1,22.21,27.1,27.1,62,10000,4.18
Fes,MA,2548885,1648790285,34.0372,-4.9998,75,broken clouds,52.05,51.04,52.05,52.05,87,10000,11.5
Río Gallegos,AR,3838859,1648790285,-51.6226,-69.2181,0,clear sky,44.65,40.78,44.65,44.65,70,10000,6.91
Kankan,GN,2419992,1648790286,10.3854,-9.3057,66,broken clouds,81.97,83.35,81.97,81.97,54,10000,7.74
Anáhuac,MX,4013726,1648790286,27.2333,-100.15,98,overcast clouds,66.69,66.25,66.69,66.69,68,10000,15.64
Sabha,LY,2212775,1648790287,27.0377,14.4283,100,overcast clouds,68.68,66.29,68.68,68.68,22,10000,12.44
Nālūt,LY,2214432,1648790287,30.3333,10.85,25,scattered clouds,56.86,53.56,56.86,56.86,28,10000,7.47
Scottsbluff,US,5699404,1648790287,41.8666,-103.6672,75,broken clouds,43.99,37.29,43.03,51.12,49,10000,13.8
Kuusamo,FI,649924,1648790288,65.9667,29.1833,75,broken clouds,6.84,6.84,6.84,6.84,85,10000,1.14
Siguiri,GN,2415702,1648790288,11.6667,-9.5,98,overcast clouds,86.09,84.43,86.09,86.09,34,10000,4.41
Puerto Ayacucho,VE,3629710,1648790289,5.6639,-67.6236,76,broken clouds,78.22,79.09,78.22,78.22,71,10000,3.6
Manyana,BW,933416,1648790289,-23.4,21.7167,19,few clouds,67.42,67.35,67.42,67.42,74,10000,5.99
Lengshuitan,CN,1804162,1648790289,26.4111,111.5956,100,overcast clouds,53.13,52.09,53.13,53.13,84,10000,11.14
Gamba,GA,2400547,1648790290,-2.65,10.0,100,light rain,75.54,77.27,75.54,75.54,95,10000,10.11
Port Moresby,PG,2088122,1648790290,-9.4431,147.1797,98,heavy intensity rain,75.06,76.73,75.06,75.06,95,3824,9.13
Jiazi,CN,1805935,1648790291,22.8779,116.067,100,overcast clouds,63.48,62.96,63.48,63.48,73,10000,18.28
Smidovich,RU,2016412,1648790291,48.6,133.8167,6,clear sky,32.32,25.43,32.32,32.32,70,10000,7.7
Koungheul,SN,2249554,1648790291,13.9833,-14.8,72,broken clouds,79.21,79.21,79.21,79.21,24,10000,4.74
São José da Coroa Grande,BR,3388456,1648790292,-8.8978,-35.1478,100,overcast clouds,77.41,78.57,77.41,77.41,79,10000,1.1
Tarabuco,BO,3903391,1648790292,-19.1667,-64.9167,100,overcast clouds,41.16,38.7,41.16,41.16,76,10000,3.96
Waddān,LY,2209055,1648790293,29.1614,16.139,100,overcast clouds,67.24,65.41,67.24,67.24,37,10000,8.16
Carbondale,US,4235193,1648789954,37.7273,-89.2168,100,overcast clouds,38.53,33.42,37.69,39.2,81,10000,6.91
Anadyr,RU,2127202,1648790293,64.75,177.4833,100,light shower snow,21.0,12.49,21.0,21.7,79,6000,6.71
Tazmalt,DZ,2477537,1648790293,36.3868,4.3989,44,scattered clouds,48.07,44.87,48.07,48.07,83,10000,6.98
Pato Branco,BR,3454818,1648790294,-26.2286,-52.6706,85,overcast clouds,53.44,51.82,53.44,53.44,71,10000,3.96
Canavieiras,BR,3467577,1648790294,-15.675,-38.9472,9,clear sky,74.93,76.06,74.93,74.93,84,10000,1.72
Valle d'Aosta,IT,3182996,1648790295,45.7667,7.4167,87,overcast clouds,27.63,21.51,22.62,31.84,54,10000,5.46
Ferrol,ES,3123493,1648790295,43.4832,-8.2369,15,few clouds,41.65,35.46,35.58,46.67,67,10000,10.56
La Libertad,EC,3655131,1648790296,-2.2333,-80.9,100,overcast clouds,75.9,77.14,75.9,75.9,84,10000,5.17
Tarko-Sale,RU,1490085,1648790296,64.9225,77.785,100,overcast clouds,16.88,4.28,16.88,16.88,86,10000,19.44
Yanam,IN,1252795,1648790296,16.7333,82.2167,76,broken clouds,94.33,101.12,94.33,94.33,46,10000,7.65
Sebastian,US,4130449,1648790077,35.1668,-94.2669,1,clear sky,37.18,37.18,30.9,38.08,81,10000,0.69
Tarakan,ID,1624725,1648790297,3.3,117.6333,40,scattered clouds,83.7,92.8,83.7,83.7,79,10000,5.75
Tutóia,BR,3385899,1648790300,-2.7619,-42.2744,100,overcast clouds,75.63,77.13,75.63,75.63,90,7203,2.26
Buchanan,LR,2278158,1648790301,5.8808,-10.0467,49,scattered clouds,79.03,79.03,79.03,79.03,89,10000,4.29
Chernyshevskiy,RU,2025456,1648790301,63.0128,112.4714,84,broken clouds,27.54,15.46,27.54,27.54,83,10000,16.06
Barpathār,IN,1276869,1648790302,26.3,93.8667,56,broken clouds,77.45,77.2,77.45,77.45,49,10000,5.82
Banjar,ID,1650232,1648790302,-8.19,114.9675,39,heavy intensity rain,84.38,94.64,84.38,84.38,79,10000,3.33
Araguaína,BR,3407357,1648790302,-7.1911,-48.2072,99,overcast clouds,71.47,72.84,71.47,71.47,96,10000,3.42
Novo Aripuanã,BR,3663142,1648790303,-5.1206,-60.3797,88,overcast clouds,71.62,73.13,71.62,71.62,99,10000,2.24
Santa Vitória do Palmar,BR,3449747,1648790303,-33.5189,-53.3681,81,broken clouds,54.99,53.8,54.99,54.99,77,10000,5.44
Lugus,PH,1705300,1648790304,5.7036,120.8203,18,moderate rain,83.61,91.54,83.61,83.61,76,10000,10.96
Lukovetskiy,RU,533418,1648790304,64.2956,41.9211,95,overcast clouds,18.63,10.04,18.63,18.63,94,5051,6.26
Westerland,DE,2810284,1648790304,54.9079,8.3033,40,scattered clouds,33.48,22.73,30.94,33.82,75,10000,17.27
Manokwari,ID,1636308,1648790305,-0.8667,134.0833,98,overcast clouds,82.18,87.73,82.18,82.18,74,10000,1.28
Coruripe,BR,3465329,1648790305,-10.1256,-36.1756,100,overcast clouds,76.42,77.72,76.42,76.42,84,10000,2.51
Yaan,NG,2338660,1648790305,7.3833,8.5667,77,broken clouds,79.36,79.36,79.36,79.36,72,10000,6.67
San Cristobal,VE,3628473,1648790306,7.7669,-72.225,82,broken clouds,66.38,66.24,66.38,66.38,75,10000,1.63
Maţāy,EG,352628,1648790306,28.419,30.7792,100,overcast clouds,67.8,65.32,67.8,67.8,22,10000,5.21
Asău,RO,686090,1648790307,46.4333,26.4,77,broken clouds,49.12,47.97,49.12,49.28,80,10000,3.85
North Bend,US,5742974,1648790307,43.4065,-124.2243,0,clear sky,44.8,40.96,41.92,47.86,93,10000,6.91
Sol'-Iletsk,RU,491019,1648790307,51.1631,54.9918,40,scattered clouds,45.61,39.43,45.61,45.61,74,10000,13.53
Baharly,TM,162158,1648790308,38.4362,57.4316,95,overcast clouds,65.93,63.82,65.93,65.93,34,10000,1.83
Velizh,RU,475955,1648790308,55.6056,31.1967,100,overcast clouds,25.65,16.29,25.65,25.65,83,10000,9.26
Kaeo,NZ,2189343,1648789813,-35.1,173.7833,100,overcast clouds,74.32,75.16,74.32,74.32,79,10000,3.11
Zyryanka,RU,2119283,1648790309,65.75,150.85,98,overcast clouds,7.36,-4.79,7.36,7.36,81,10000,7.61
Beira,MZ,1052373,1648790309,-19.8436,34.8389,20,few clouds,75.29,77.22,75.29,75.29,100,10000,4.61
Melville,US,5126555,1648790310,40.7934,-73.4151,100,mist,54.45,53.58,49.55,60.35,85,2414,19.57
Hakui,JP,1863341,1648790310,36.8833,136.7833,99,overcast clouds,50.4,47.01,48.72,51.26,40,10000,10.6
Hailey,US,5594956,1648790311,43.5196,-114.3153,0,clear sky,37.96,29.21,30.99,39.06,39,10000,15.01
Bang Saphan,TH,1157662,1648790311,11.2126,99.5117,97,overcast clouds,90.19,96.89,90.19,90.19,54,10000,7.9
Maketu,NZ,2187908,1648790312,-37.7667,176.45,100,overcast clouds,72.5,73.08,71.06,73.62,77,10000,3.11
Carutapera,BR,3402648,1648790312,-1.195,-46.02,97,overcast clouds,73.38,74.89,73.38,73.38,95,10000,0.96
Nortelândia,BR,3456248,1648790312,-14.4547,-56.8028,100,light rain,60.8,60.85,60.8,60.8,91,10000,4.74
Tucupita,VE,3625929,1648790313,9.0622,-62.051,84,broken clouds,70.54,71.91,70.54,70.54,98,10000,3.33
Kiunga,PG,2093846,1648790313,-6.1219,141.2906,86,overcast clouds,86.43,92.32,86.43,86.43,61,10000,3.58
Chicama,PE,3698359,1648790313,-7.8447,-79.1469,88,overcast clouds,64.94,64.99,64.94,64.94,82,10000,3.91
George Town,MY,1735106,1648790314,5.4112,100.3354,40,scattered clouds,87.85,100.45,87.75,89.53,73,10000,9.22
Slave Lake,CA,6149374,1648790118,55.2834,-114.769,20,few clouds,31.98,24.8,31.98,31.98,93,10000,8.05
Luanda,AO,2240449,1648790314,-8.8368,13.2343,98,overcast clouds,77.0,78.64,77.0,77.0,90,10000,6.76
Lavrentiya,RU,4031637,1648790315,65.5833,-171.0,100,light snow,18.88,8.08,18.88,18.88,93,2756,9.08
Vrangel',RU,2013258,1648790315,42.7297,133.0839,10,clear sky,40.32,32.65,40.32,40.32,46,10000,13.71
Waipawa,NZ,2206874,1648789799,-41.4122,175.5153,100,overcast clouds,57.4,57.45,57.4,57.4,98,2992,7.45
Flin Flon,CA,5954718,1648790316,54.7682,-101.865,100,light snow,27.86,18.84,27.86,27.86,97,148,9.57
Seybaplaya,MX,3516685,1648790316,19.65,-90.6667,75,broken clouds,79.45,79.45,79.45,79.45,78,10000,7.18
Manjeshwar,IN,1263780,1648790316,12.7194,74.8861,97,overcast clouds,85.15,90.18,85.15,85.15,62,10000,5.82
Bāglung,NP,1283711,1648790317,28.2719,83.5898,6,clear sky,82.69,81.68,82.69,82.69,37,10000,6.76
Mitú,CO,3674676,1648790169,1.1983,-70.1733,99,overcast clouds,72.5,73.87,72.5,72.5,94,10000,2.04
Harpanahalli,IN,1270287,1648790317,14.8,75.9833,34,scattered clouds,90.03,86.72,90.03,90.03,23,10000,7.99
Nome,US,5870133,1648790318,64.5011,-165.4064,100,overcast clouds,30.27,22.01,30.11,30.27,74,10000,9.22
La Santisima Trinidad,BO,3902377,1648790318,-14.8333,-64.9,100,overcast clouds,58.77,57.22,58.77,58.77,61,10000,5.95
Santa María del Oro,MX,3984078,1648790319,25.9333,-105.3667,93,overcast clouds,55.76,51.98,55.76,55.76,20,10000,3.15
St. George's,GD,3579925,1648790319,12.0564,-61.7485,40,scattered clouds,78.48,79.68,78.48,78.48,78,10000,18.41
Lucapa,AO,145724,1648790319,-8.4192,20.7447,100,overcast clouds,66.4,67.1,66.4,66.4,93,10000,3.0
Lorengau,PG,2092164,1648789826,-2.0226,147.2712,72,broken clouds,83.75,91.89,83.75,83.75,76,10000,18.54
San Andrés,CO,3670218,1648790320,12.5847,-81.7006,40,scattered clouds,80.62,85.24,80.62,80.62,78,10000,9.22
Szentgotthárd,HU,3044669,1648790320,46.9526,16.2736,100,overcast clouds,43.5,41.94,43.5,43.5,93,10000,3.38
Lerwick,GB,2644605,1648790243,60.1545,-1.1494,29,scattered clouds,32.0,24.26,32.0,32.0,59,10000,8.99
Dhemāji,IN,1272783,1648790324,27.4833,94.5833,95,overcast clouds,73.47,73.62,73.47,73.47,66,10000,4.99
Mehamn,NO,778707,1648790324,71.0357,27.8492,100,light snow,28.31,20.93,28.31,28.31,73,9041,7.16
Pastavy,BY,623760,1648790325,55.1168,26.8326,100,overcast clouds,27.99,17.31,27.99,27.99,56,10000,12.91
Boddam,GB,2655288,1648790243,57.4667,-1.7833,45,light snow,32.74,22.17,32.65,34.18,74,10000,16.04
Capelinha,BR,3467305,1648790325,-17.6914,-42.5158,6,clear sky,61.52,61.41,61.52,61.52,86,10000,2.04
Povenets,RU,505820,1648790325,62.8487,34.8262,83,broken clouds,9.23,9.23,9.23,9.23,96,10000,0.74
Los Llanos de Aridane,ES,2514651,1648789759,28.6585,-17.9182,100,overcast clouds,56.12,55.56,56.12,60.55,88,10000,9.22
Starachowice,PL,758390,1648790072,51.0374,21.0713,100,snow,32.76,22.51,29.39,34.45,98,119,15.1
Rohnert Park,US,5388564,1648790191,38.3396,-122.7011,100,overcast clouds,50.34,48.83,46.26,55.69,80,10000,1.01
Kantunilkín,MX,3822702,1648790326,21.0917,-87.45,7,clear sky,76.75,78.26,76.75,76.75,88,10000,7.27
Sittwe,MM,1295765,1648790327,20.15,92.9,49,scattered clouds,84.51,90.23,84.51,84.51,66,10000,8.99
Bugene,TZ,161022,1648790327,-1.5911,31.1403,45,scattered clouds,60.26,60.22,60.26,60.26,90,10000,2.26
Chumikan,RU,2025256,1648790327,54.7183,135.315,67,broken clouds,29.07,18.27,29.07,29.07,62,10000,13.89
Siocon,PH,1686123,1648790328,7.7061,122.1353,73,broken clouds,85.5,94.68,85.5,85.5,72,10000,8.3
Isoka,ZM,916668,1648790328,-10.1606,32.6335,100,light rain,62.08,62.6,62.08,62.08,98,10000,1.52
Kirensk,RU,2022083,1648790328,57.7853,108.1119,100,overcast clouds,37.17,29.03,37.17,37.17,91,10000,12.66
Miraflores,MX,3761194,1648790329,19.2167,-98.8083,4,clear sky,68.41,66.13,67.87,70.03,25,10000,3.22
Pīpār,IN,1259608,1648790329,26.3856,73.5378,0,clear sky,93.2,88.68,93.2,93.2,6,10000,2.59
Grafton,US,4938048,1648790116,42.207,-71.6856,100,moderate rain,56.44,55.89,54.81,59.07,87,10000,17.27
Turbat,PK,1163054,1648790330,26.0023,63.044,0,clear sky,91.53,87.53,91.53,91.53,3,10000,15.26
Nikel,RU,522260,1648790330,69.4128,30.222,100,overcast clouds,17.78,9.46,17.78,17.78,98,7367,5.84
Sechura,PE,3691954,1648790331,-5.5569,-80.8222,89,overcast clouds,71.37,71.92,71.37,71.37,79,10000,12.35
Ibrā’,OM,287832,1648790331,22.6906,58.5334,0,clear sky,87.35,84.02,87.35,87.35,21,10000,3.06
Grants Pass,US,5729080,1648790287,42.439,-123.3284,0,clear sky,44.83,40.44,42.55,48.79,66,10000,8.05
Gwadar,PK,1177446,1648790332,25.1216,62.3254,0,clear sky,83.86,82.33,83.86,83.86,34,10000,5.08
Mlonggo,ID,1635164,1648790332,-6.5333,110.7,100,overcast clouds,81.64,86.59,81.64,81.64,74,10000,3.04
Tahe,CN,2034615,1648790332,52.3333,124.7333,21,few clouds,39.22,35.11,39.22,39.22,40,10000,5.59
Peleduy,RU,2018069,1648790333,59.6289,112.7406,100,light rain,35.98,26.55,35.98,35.98,93,2785,15.41
Storforshei,NO,3145614,1648790333,66.4043,14.5233,0,clear sky,6.58,6.58,6.58,9.66,78,10000,1.14
Kletnya,RU,547681,1648790333,53.3897,33.2171,100,light snow,32.74,23.56,32.74,32.74,97,159,12.35
Mineiros,BR,3457147,1648790334,-17.5694,-52.5511,83,broken clouds,66.09,66.96,66.09,66.09,97,7237,5.46
Riyadh,SA,108410,1648789825,24.6877,46.7219,0,clear sky,77.14,74.98,77.14,77.14,9,10000,3.31
Caravelas,BR,3466980,1648790334,-17.7125,-39.2481,2,clear sky,74.98,76.32,74.98,74.98,88,10000,3.31
São Miguel do Araguaia,BR,3448455,1648790335,-13.275,-50.1628,41,scattered clouds,71.85,73.06,71.85,71.85,92,10000,3.47
Saint-Louis,SN,2246451,1648790335,16.3333,-15.0,0,clear sky,77.95,76.3,77.95,77.95,18,10000,9.44
Lago da Pedra,BR,3396601,1648790335,-4.3333,-45.1667,100,light rain,72.72,74.3,72.72,72.72,98,10000,3.47
Coahuayana Viejo,MX,4013679,1648790336,18.7333,-103.6833,67,broken clouds,65.62,65.79,65.62,65.62,83,10000,3.13
Tomatlán,MX,3981391,1648790336,19.9333,-105.25,44,scattered clouds,62.13,61.99,62.13,62.13,84,10000,2.1
Vanimo,PG,2084442,1648790337,-2.6741,141.3028,100,overcast clouds,82.85,90.03,82.85,82.85,77,10000,6.22
Nizhnekamsk,RU,521118,1648790337,55.6366,51.8245,100,overcast clouds,28.65,17.94,28.65,29.19,100,6000,13.42
Nohar,IN,1261234,1648790338,29.1833,74.7667,0,clear sky,92.53,88.12,92.53,92.53,6,10000,6.93
Sebeta,ET,329114,1648790338,8.9167,38.6167,23,few clouds,61.36,58.6,61.36,61.36,30,10000,5.5
Tiznit Province,MA,2527087,1648790338,29.5833,-9.5,2,clear sky,53.37,52.36,53.37,53.37,84,10000,1.16
Murray Bridge,AU,2065176,1648790339,-35.1167,139.2667,0,clear sky,73.13,71.37,73.13,74.82,26,10000,13.29
Hudson Bay,CA,5978133,1648790339,52.85,-102.3842,100,overcast clouds,34.45,27.16,34.45,34.45,90,10000,9.22
Bonoua,CI,2291087,1648790339,5.2741,-3.595,85,overcast clouds,83.82,96.42,83.82,83.82,92,10000,5.01
Kushima,JP,1895695,1648790340,31.4583,131.2333,79,broken clouds,58.44,56.19,58.44,58.44,47,10000,19.22
Abū Zabad,SD,380348,1648790340,12.35,29.25,4,clear sky,77.81,76.05,77.81,77.81,16,10000,7.94
Xining,CN,1788852,1648790341,36.6167,101.7667,80,broken clouds,44.19,40.19,44.19,44.19,39,10000,7.0
Grootfontein,NA,3357114,1648790341,-19.5667,18.1167,74,broken clouds,64.71,64.96,64.71,64.71,87,10000,3.51
Hanstholm,DK,2620786,1648790341,57.1167,8.6167,4,clear sky,30.61,19.94,30.61,30.61,55,10000,14.67
Arman',RU,2127060,1648790342,59.7,150.1667,83,broken clouds,25.02,15.42,25.02,25.02,59,10000,9.42
Ahome,MX,4019098,1648790342,25.9167,-109.1833,8,clear sky,64.6,62.87,64.6,64.6,45,10000,2.66
Lipari,IT,2524379,1648790343,38.4674,14.954,27,scattered clouds,55.0,54.01,53.11,56.32,81,10000,15.05
Sun Valley,US,5513307,1648790343,39.5963,-119.776,0,clear sky,43.5,38.82,38.52,48.58,36,10000,8.05
Saint-Augustin,CA,6137462,1648789809,51.226,-58.6502,30,scattered clouds,15.8,5.92,15.8,15.8,95,10000,7.07
Mayna,RU,528278,1648790344,54.1135,47.6231,100,light snow,32.56,32.56,32.56,32.56,100,100,1.72
Rūdbār,AF,1128239,1648790347,30.15,62.6,0,clear sky,77.79,75.6,77.79,77.79,7,10000,3.67
Bismarck,US,5688025,1648790311,46.8083,-100.7837,0,clear sky,35.58,29.88,33.64,40.8,65,10000,6.91
Falam,MM,1326105,1648790348,22.9167,93.6833,6,clear sky,82.6,80.47,82.6,82.6,24,10000,3.38
Halifax,CA,6324729,1648790051,44.6453,-63.5724,100,overcast clouds,39.76,39.76,39.34,41.22,96,62,1.01
Kedrovyy,RU,1538641,1648790348,56.1667,91.8167,100,overcast clouds,46.87,40.19,46.81,46.87,66,10000,16.78
Ascension,US,4315067,1648790348,30.2169,-90.9001,0,clear sky,53.91,52.81,50.07,60.03,81,10000,0.0
Ilhabela,BR,3461425,1648790349,-23.7781,-45.3581,100,overcast clouds,72.0,73.22,72.0,72.0,92,1860,10.18
North Creek,US,5804953,1648790349,47.8195,-122.1762,100,overcast clouds,44.46,41.99,41.25,47.75,79,10000,4.61
Artvin Province,TR,751816,1648790350,41.1667,41.8333,67,broken clouds,46.53,43.14,46.53,46.53,67,10000,6.71
Bonavista,CA,5905393,1648790350,48.6499,-53.1147,92,overcast clouds,30.15,17.89,30.15,30.15,87,10000,18.9
Kovdor,RU,543508,1648790350,67.5662,30.4758,94,overcast clouds,15.35,15.35,15.35,15.35,90,10000,2.73
Ober-Ramstadt,DE,2859380,1648790351,49.8336,8.7519,100,overcast clouds,36.7,31.68,34.32,38.84,87,40,6.22
Chhatarpur,IN,1274337,1648790102,24.9,79.6,0,clear sky,99.86,94.23,99.86,99.86,7,10000,7.99
Morón,AR,3430545,1648790351,-34.6534,-58.6198,0,clear sky,50.02,48.29,42.8,55.15,76,10000,2.64
Ōhara,JP,2111495,1648790352,35.25,140.3833,100,overcast clouds,48.6,42.71,48.6,48.6,52,10000,15.59
Laurinburg,US,4475347,1648790352,34.7741,-79.4628,0,clear sky,65.82,66.24,61.83,67.96,88,10000,11.5
Manacapuru,BR,3663529,1648790353,-3.2997,-60.6206,92,overcast clouds,73.33,74.88,73.33,73.33,96,10000,4.99
Colesberg,ZA,1013076,1648790353,-30.72,25.0972,33,scattered clouds,58.19,57.56,58.19,58.19,82,10000,3.06
Batagay,RU,2027044,1648790354,67.6333,134.6333,76,broken clouds,10.02,-0.65,10.02,10.02,81,10000,6.67
Saurimo,AO,145531,1648790354,-9.6608,20.3916,100,overcast clouds,65.48,66.29,65.48,65.48,97,10000,3.85
Piney Green,US,4485355,1648790354,34.716,-77.3202,100,overcast clouds,68.95,69.93,64.89,71.53,93,10000,11.5
Conde,BR,3385077,1648790355,-7.2597,-34.9075,20,few clouds,74.66,76.24,74.66,74.66,94,10000,4.61
Nador,MA,2541479,1648790355,35.174,-2.9287,40,scattered clouds,59.25,58.5,55.47,59.25,77,10000,17.27
Dārāb,IR,137956,1648790356,28.7519,54.5444,0,clear sky,77.23,75.31,77.23,77.23,14,10000,3.6
Vikhorevka,RU,2013399,1648790356,56.1201,101.1636,100,overcast clouds,40.59,34.21,40.24,40.59,74,10000,10.36
Bumba,CD,217745,1648790356,2.1833,22.4667,96,overcast clouds,74.3,75.0,74.3,74.3,76,10000,3.27
Barie,FR,3034930,1648790357,44.5725,-0.1104,47,scattered clouds,33.78,25.86,33.49,35.01,78,10000,10.13
Deputatsky,RU,2028164,1648789760,69.3,139.9,18,few clouds,2.7,-4.4,2.7,2.7,88,10000,3.27
Darhan,MN,2031964,1648790357,49.4867,105.9228,3,clear sky,46.44,42.94,46.44,46.44,26,10000,6.91
Huizhou,CN,1806776,1648790358,23.0833,114.4,100,overcast clouds,65.32,64.83,65.32,65.32,70,10000,14.74
Mogocha,RU,2019912,1648790358,53.7333,119.7667,13,few clouds,37.63,32.34,37.63,37.63,50,10000,6.91
Kampong Chhnang,KH,1831166,1648790359,12.1667,104.55,96,overcast clouds,89.13,95.67,89.13,89.13,56,10000,1.83
Fethiye,TR,314967,1648790359,36.6217,29.1164,44,scattered clouds,48.07,48.07,48.07,48.07,40,10000,2.68
Palauig,PH,1696188,1648790359,15.435,119.9045,90,overcast clouds,88.36,95.45,88.36,88.36,59,10000,11.48
Ennis,IE,2964405,1648790360,52.8436,-8.9864,20,few clouds,28.33,28.33,28.33,28.33,93,10000,1.14
Whitehorse,CA,6180550,1648790360,60.7161,-135.0538,20,few clouds,30.97,30.97,25.11,30.97,51,10000,2.3
Auki,SB,2109701,1648790361,-8.7676,160.7034,100,moderate rain,77.18,78.96,77.18,77.18,93,2762,4.47
Steamboat Springs,US,5582371,1648790348,40.485,-106.8317,100,overcast clouds,34.2,28.15,32.56,38.93,94,10000,7.0
San Cristóbal Verapaz,GT,3590316,1648790361,15.3833,-90.4,24,few clouds,63.73,63.48,63.73,63.73,78,10000,2.59
San Jerónimo,PE,3929611,1648790362,-11.9472,-75.2829,100,overcast clouds,49.91,49.91,49.91,49.91,86,10000,1.28
Bakaly,RU,579728,1648790362,55.1789,53.8028,100,light snow,29.28,22.44,29.28,29.28,97,217,6.71
Tarauacá,BR,3661980,1648790362,-8.1614,-70.7656,100,overcast clouds,72.97,74.62,72.97,72.97,99,7798,1.99
Angoram,PG,2100765,1648790363,-4.0625,144.0661,100,light rain,78.67,80.62,78.67,78.67,93,10000,2.66
Munkebo,DK,2616672,1648790363,55.4618,10.5558,100,overcast clouds,30.81,20.37,30.81,30.81,59,10000,14.2
Coari,BR,3664539,1648790363,-4.085,-63.1414,94,overcast clouds,73.4,75.0,73.4,73.4,97,10000,3.09
Iquique,CL,3887127,1648790364,-20.2208,-70.1431,2,clear sky,60.84,59.92,60.84,60.84,70,10000,1.5
Knyaze-Volkonskoye,RU,2021954,1648790364,48.4642,135.4567,95,overcast clouds,33.3,25.63,33.3,34.14,74,10000,9.42
Itoigawa,JP,1861285,1648790365,37.0333,137.85,100,overcast clouds,43.32,41.11,43.32,43.32,45,10000,4.05
Kalabo,ZM,915471,1648790365,-14.97,22.6814,42,scattered clouds,63.52,63.93,63.52,63.52,93,10000,4.79
Rio do Sul,BR,3451152,1648790366,-27.2142,-49.6431,96,overcast clouds,59.4,58.69,59.4,59.4,78,10000,1.03
Monrovia,LR,2274895,1648790221,6.3005,-10.7969,67,light rain,76.77,78.28,76.77,76.77,88,10000,5.19
Irbit,RU,1505526,1648790366,57.6705,63.071,100,overcast clouds,28.31,23.43,28.31,28.31,84,10000,4.34
Dalbandin,PK,1180729,1648790367,28.8947,64.4101,0,clear sky,76.59,74.14,76.59,76.59,4,10000,10.58
Marsá Maţrūḩ,EG,352733,1648790370,31.3525,27.2453,100,overcast clouds,64.8,63.0,64.8,64.8,43,10000,13.0
Esim,GH,2303611,1648790370,4.8699,-2.2405,73,broken clouds,79.66,79.66,79.66,79.66,86,10000,5.21
Aloleng,PH,1731298,1648790371,16.1307,119.7824,100,overcast clouds,87.62,94.33,87.62,87.62,60,10000,10.4
Sobreira,PT,2733902,1648790371,41.5237,-7.8023,41,scattered clouds,40.6,37.87,40.6,40.6,90,10000,4.16
Adrar,MR,2381972,1648790372,20.5022,-10.0711,44,scattered clouds,66.09,63.19,66.09,66.09,17,10000,10.6
Venado Tuerto,AR,3833062,1648790372,-33.7456,-61.9688,0,clear sky,50.77,48.24,50.77,50.77,57,10000,6.93
São Geraldo do Araguaia,BR,3388760,1648790373,-6.4006,-48.555,100,overcast clouds,71.71,73.18,71.71,71.71,98,10000,2.86
Aras,ES,3129839,1648790373,42.5617,-2.356,40,scattered clouds,34.14,26.78,32.72,34.23,70,10000,9.22
Christchurch,NZ,2192362,1648790280,-43.5333,172.6333,100,overcast clouds,57.61,56.79,53.47,57.94,79,10000,2.3
Katangli,RU,2122783,1648790374,51.7102,143.2326,61,broken clouds,27.75,16.97,27.75,27.75,60,10000,13.04
South Kazakhstan Region,KZ,1524787,1648790374,43.0,68.0,100,overcast clouds,61.45,58.8,61.45,61.45,32,10000,3.29
Promyshlennaya,RU,1494091,1648790375,54.9159,85.6385,100,overcast clouds,39.56,31.69,39.56,40.15,91,10000,13.71
Qandala,SO,53157,1648790375,11.472,49.8728,0,clear sky,84.27,86.16,84.27,84.27,53,10000,4.61
Palaia Fokaia,GR,256173,1648790375,37.72,23.9463,65,broken clouds,62.6,62.19,59.85,63.81,77,10000,19.15
Fairview,US,5097801,1648790119,40.8126,-73.999,100,overcast clouds,58.1,57.7,52.23,61.38,87,10000,10.36
Timmins,CA,6166739,1648790251,48.4669,-81.3331,100,overcast clouds,21.02,8.42,21.02,21.02,93,10000,13.8
Sinjai,ID,1626895,1648790376,-5.1241,120.253,92,overcast clouds,85.95,94.51,85.95,85.95,69,10000,3.58
Katsina,NG,2334802,1648790376,12.9894,7.6006,8,clear sky,73.69,71.19,73.69,73.69,9,10000,7.14
Ust'-Kulom,RU,478050,1648790377,61.6864,53.6902,99,light snow,22.77,13.78,22.77,22.77,90,8718,7.76
Cilegon,ID,1627549,1648790377,-6.0174,106.0538,96,overcast clouds,86.41,93.88,86.41,86.41,65,10000,10.8
Ipixuna,BR,3408424,1648790378,-1.7625,-48.8043,100,moderate rain,73.09,74.75,73.09,73.09,99,10000,1.32
Kushmurun,KZ,1519924,1648790378,52.4503,64.6311,72,broken clouds,34.93,26.65,34.93,34.93,97,10000,11.56
Colares,PT,2269142,1648790379,38.7992,-9.4469,9,clear sky,53.51,52.0,50.99,54.75,73,10000,20.0
Uspenka,UA,690629,1648790379,48.3903,39.1619,100,overcast clouds,51.53,49.21,51.53,51.53,60,10000,17.72
Súchil,MX,3982768,1648790379,23.6333,-103.9167,94,overcast clouds,55.89,51.98,55.89,55.89,17,10000,7.2
Zhezkazgan,KZ,1516589,1648790380,47.8043,67.7144,0,clear sky,46.38,42.98,46.38,46.38,61,10000,6.71
Sakaiminato,JP,1853174,1648790380,35.55,133.2333,75,broken clouds,51.78,48.4,51.78,53.53,37,10000,14.97
Jinchang,CN,1805733,1648790380,38.4953,102.1739,2,clear sky,49.75,44.35,49.75,49.75,18,10000,14.85
Sehore,IN,1256913,1648790381,23.2,77.0833,0,clear sky,91.67,87.31,91.67,91.67,11,10000,9.24
Minot,US,5690532,1648789682,48.2325,-101.2963,0,clear sky,37.62,31.66,30.31,37.62,65,10000,8.05
Evanston,US,4891382,1648790258,42.0411,-87.6901,100,overcast clouds,32.83,24.04,31.24,34.32,88,9656,11.5
Ghanzi,BW,933759,1648790381,-21.5667,21.7833,1,clear sky,67.3,66.92,67.3,67.3,68,10000,7.05
Paamiut,GL,3421193,1648790382,61.994,-49.6678,60,broken clouds,25.86,21.27,25.86,25.86,85,10000,3.78
Mbanza-Ngungu,CD,2312888,1648790382,-5.25,14.8667,99,overcast clouds,67.35,68.25,67.35,67.35,95,10000,2.37
Bintulu,MY,1737486,1648790383,3.1667,113.0333,20,few clouds,88.21,100.8,88.21,88.21,70,10000,6.91
Yerofey Pavlovich,RU,2012938,1648790383,53.9667,121.9667,24,few clouds,37.58,33.35,37.58,37.58,43,10000,5.35
Duliāgaon,IN,1272259,1648790383,27.3667,95.3167,98,overcast clouds,73.27,73.26,73.27,73.27,63,10000,3.74
Stokmarknes,NO,3136690,1648790384,68.5646,14.9108,40,light snow,22.98,15.73,22.98,24.76,80,10000,5.75
Jaranwala,PK,1176106,1648790384,31.3333,73.4333,0,clear sky,95.94,90.93,95.94,95.94,5,10000,8.68
Werda,BW,932960,1648790384,-25.2667,23.2833,49,scattered clouds,70.05,69.39,70.05,70.05,56,10000,4.59
Yashkul',RU,468747,1648790385,46.1711,45.3435,90,overcast clouds,53.53,50.59,53.53,53.53,43,10000,13.56
Simao,CN,1794209,1648790385,22.7886,100.9748,20,few clouds,73.96,74.01,73.96,73.96,63,8783,4.94
Coro,VE,3645213,1648790386,11.4045,-69.6734,98,overcast clouds,76.23,77.5,76.23,76.23,84,10000,13.87
Bariloche,AR,7647007,1648790386,-41.1456,-71.3082,100,overcast clouds,51.06,48.6,51.06,51.06,58,10000,2.82
Bonaventure,CA,6943825,1648790386,48.0457,-65.4926,100,snow,34.34,29.21,34.34,34.38,93,274,5.75
Ngunguru,NZ,2186111,1648790387,-35.6167,174.5,100,overcast clouds,69.24,69.35,69.24,69.24,74,10000,3.65
Antsohihy,MG,1068971,1648790387,-14.8796,47.9875,99,overcast clouds,77.23,78.46,77.23,77.23,81,10000,4.61
Yuanli,TW,1669401,1648790387,24.4397,120.6535,75,broken clouds,70.23,70.16,70.02,79.23,68,10000,24.16
Osakarovka,KZ,1520327,1648790388,50.565,72.5692,100,overcast clouds,38.41,35.89,38.41,38.41,99,10000,3.6
Jatibonico,CU,3556334,1648790388,21.9419,-79.17,6,light rain,73.45,74.5,73.45,73.45,85,10000,4.99
Poso,ID,1630723,1648790389,-1.3959,120.7524,94,overcast clouds,86.63,93.11,86.63,86.63,62,10000,5.73
Shitanjing,CN,1794971,1648790389,39.2342,106.3439,2,clear sky,48.54,41.11,48.54,48.54,15,10000,23.2
Petropavlovsk-Kamchatskiy,RU,2122104,1648790389,53.0452,158.6483,75,broken clouds,36.19,32.47,35.78,36.19,38,10000,4.47
Yulara,AU,6355222,1648790390,-25.2406,130.9889,100,overcast clouds,80.44,78.71,80.44,80.44,17,10000,12.66
